,Admin2,Province_State,Lat,Long_,Confirmed,Deaths,Recovered,County,State,TotalPop,Transit,WorkAtHome
0,Abbeville,South Carolina,34.22333378,-82.46170658,162,1,0,Abbeville,South Carolina,24997.0,0.2,3.0
1,Acadia,Louisiana,30.295064899999996,-92.41419698,1453,46,0,Acadia,Louisiana,62163.0,0.2,2.0
2,Accomack,Virginia,37.76707161,-75.63234615,1045,14,0,Accomack,Virginia,33115.0,0.5,2.7
3,Ada,Idaho,43.4526575,-116.24155159999998,4541,25,0,Ada,Idaho,417501.0,0.5,6.9
4,Adair,Iowa,41.33075609,-94.47105874,17,0,0,Adair,Iowa,7426.0,0.3,5.8
5,Adair,Kentucky,37.10459774,-85.28129668,149,19,0,Adair,Kentucky,18852.0,0.5,2.9
6,Adair,Missouri,40.19058551,-92.60078167,102,0,0,Adair,Missouri,25560.0,0.2,3.7
7,Adair,Oklahoma,35.88494195,-94.65859267,144,4,0,Adair,Oklahoma,22236.0,0.1,2.4
8,Adams,Colorado,39.87432092,-104.3362578,4847,159,0,Adams,Colorado,471206.0,3.7,4.4
9,Adams,Idaho,44.89333571,-116.4545247,12,0,0,Adams,Idaho,3880.0,0.8,12.0
10,Adams,Illinois,39.98815591,-91.18786813,204,1,0,Adams,Illinois,67081.0,0.6,3.2
11,Adams,Indiana,40.7457653,-84.93671406,49,1,0,Adams,Indiana,34642.0,0.0,3.8
13,Adams,Mississippi,31.47669768,-91.35326037,388,20,0,Adams,Mississippi,31979.0,0.2,3.2
14,Adams,Nebraska,40.52449420000001,-98.50117804,315,11,0,Adams,Nebraska,31442.0,0.4,4.8
15,Adams,Ohio,38.84541072,-83.4718964,28,2,0,Adams,Ohio,28229.0,0.6,4.4
16,Adams,Pennsylvania,39.87140411,-77.21610347,399,14,0,Adams,Pennsylvania,101767.0,0.4,3.7
17,Adams,Washington,46.98299757,-118.56017340000001,251,0,0,Adams,Washington,19081.0,0.5,6.2
18,Adams,Wisconsin,43.96974651,-89.76782777,43,2,0,Adams,Wisconsin,20451.0,0.2,4.7
19,Addison,Vermont,44.03217337,-73.14130877,68,2,0,Addison,Vermont,36943.0,0.7,8.2
20,Aiken,South Carolina,33.54338026,-81.63645384,800,13,0,Aiken,South Carolina,163908.0,0.1,2.9
21,Aitkin,Minnesota,46.60962049,-93.41168259999999,17,0,0,Aitkin,Minnesota,15839.0,0.3,5.2
22,Alachua,Florida,29.67866525,-82.35928158,2258,12,0,Alachua,Florida,254218.0,4.5,4.1
23,Alamance,North Carolina,36.0434701,-79.39976137,1519,38,0,Alamance,North Carolina,155258.0,0.3,3.4
24,Alameda,California,37.64629437,-121.8929271,8321,152,0,Alameda,California,1584983.0,13.6,5.6
25,Alamosa,Colorado,37.57250606,-105.7885451,204,7,0,Alamosa,Colorado,16269.0,0.5,2.2
26,Albany,New York,42.60060306,-73.97723916,2247,121,0,Albany,New York,307463.0,5.7,2.9
27,Albany,Wyoming,41.65498705,-105.72354150000001,52,0,0,Albany,Wyoming,37565.0,2.6,5.9
28,Albemarle,Virginia,38.02080697,-78.55481085,578,10,0,Albemarle,Virginia,103108.0,2.0,7.2
29,Alcona,Michigan,44.6846864,-83.59507875,24,1,0,Alcona,Michigan,10550.0,0.4,4.6
30,Alcorn,Mississippi,34.88084463,-88.57996173,113,2,0,Alcorn,Mississippi,37319.0,0.2,1.6
31,Alexander,Illinois,37.18049267,-89.32910838,25,0,0,Alexander,Illinois,7364.0,2.1,0.8
32,Alexander,North Carolina,35.922379600000006,-81.17751948,183,1,0,Alexander,North Carolina,37158.0,0.0,2.3
36,Allamakee,Iowa,43.28383218,-91.37860922,138,4,0,Allamakee,Iowa,14060.0,0.1,5.1
37,Allegan,Michigan,42.59147037,-85.89102866,388,7,0,Allegan,Michigan,112837.0,0.2,4.1
38,Allegany,Maryland,39.62357628,-78.69280486,220,18,0,Allegany,Maryland,73549.0,0.6,1.9
39,Allegany,New York,42.25748406,-78.02750466,68,1,0,Allegany,New York,48070.0,0.6,3.0
40,Alleghany,North Carolina,36.49360862,-81.12857041,43,0,0,Alleghany,North Carolina,10911.0,0.1,4.6
41,Alleghany,Virginia,37.78636074,-80.00222498,52,2,0,Alleghany,Virginia,16066.0,1.0,1.6
42,Allegheny,Pennsylvania,40.46809875,-79.98167747,5364,199,0,Allegheny,Pennsylvania,1231145.0,9.1,4.2
43,Allen,Indiana,41.09194313,-85.06800636,2988,135,0,Allen,Indiana,363453.0,0.7,4.0
45,Allen,Kentucky,36.75197631,-86.19457544,193,7,0,Allen,Kentucky,20355.0,0.0,5.0
46,Allen,Louisiana,30.65385745,-92.82442028,497,14,0,Allen,Louisiana,25653.0,0.8,1.9
47,Allen,Ohio,40.77285242,-84.10802343,391,41,0,Allen,Ohio,105196.0,0.5,1.7
48,Allendale,South Carolina,32.98837386,-81.35321066,92,3,0,Allendale,South Carolina,9838.0,0.0,3.4
49,Alpena,Michigan,45.03477666,-83.62212411,123,12,0,Alpena,Michigan,29068.0,0.5,4.0
51,Amador,California,38.44583082,-120.65696000000001,45,0,0,Amador,California,36995.0,0.5,5.6
52,Amelia,Virginia,37.34081025,-77.98584649,53,1,0,Amelia,Virginia,12777.0,0.9,2.8
53,Amherst,Virginia,37.60308293,-79.14548696,40,0,0,Amherst,Virginia,32148.0,1.3,2.7
54,Amite,Mississippi,31.17467303,-90.80501621,118,3,0,Amite,Mississippi,12840.0,1.3,2.4
55,Anderson,Kansas,38.21413251,-95.29272815,15,0,0,Anderson,Kansas,7896.0,0.1,4.4
56,Anderson,Kentucky,38.00671029,-84.99171713,34,1,0,Anderson,Kentucky,21761.0,0.0,1.4
57,Anderson,South Carolina,34.51828081,-82.63959517,1134,20,0,Anderson,South Carolina,191215.0,0.3,2.4
58,Anderson,Tennessee,36.12684348,-84.19965764,219,2,0,Anderson,Tennessee,75430.0,0.0,3.0
59,Anderson,Texas,31.81534745,-95.65354823,1917,3,0,Anderson,Texas,57915.0,0.2,2.6
60,Andrew,Missouri,39.98492163,-94.80163024,55,1,0,Andrew,Missouri,17328.0,0.1,3.9
61,Andrews,Texas,32.30468633,-102.63765479999999,170,2,0,Andrews,Texas,16775.0,0.0,2.5
62,Androscoggin,Maine,44.1664747,-70.20380627,502,4,0,Androscoggin,Maine,107393.0,0.3,3.4
63,Angelina,Texas,31.25457347,-94.60901487,834,12,0,Angelina,Texas,87748.0,0.1,1.6
64,Anne Arundel,Maryland,39.00670238,-76.60329337,5619,210,0,Anne Arundel,Maryland,555280.0,3.5,4.8
65,Anoka,Minnesota,45.27476015,-93.24604565,2477,114,0,Anoka,Minnesota,338764.0,3.4,4.0
66,Anson,North Carolina,34.97403241,-80.09953279,214,2,0,Anson,North Carolina,26135.0,0.5,1.2
67,Antelope,Nebraska,42.17695516,-98.06662829999999,16,1,0,Antelope,Nebraska,6486.0,0.0,10.8
68,Antrim,Michigan,44.99690221,-85.15503082,27,0,0,Antrim,Michigan,23267.0,0.6,7.0
69,Apache,Arizona,35.39465006,-109.4892383,2611,104,0,Apache,Arizona,72124.0,0.6,6.3
70,Appanoose,Iowa,40.74324454,-92.86865906,29,3,0,Appanoose,Iowa,12669.0,0.2,5.3
71,Appling,Georgia,31.74847232,-82.28909114,370,15,0,Appling,Georgia,18417.0,0.3,2.6
72,Appomattox,Virginia,37.37569884,-78.81340003,48,0,0,Appomattox,Virginia,15208.0,0.5,5.1
73,Aransas,Texas,28.10556197,-96.9995047,57,0,0,Aransas,Texas,24292.0,0.0,5.0
74,Arapahoe,Colorado,39.64977461,-104.3353617,5734,352,0,Arapahoe,Colorado,608310.0,4.7,5.9
75,Archer,Texas,33.61569967,-98.68754589,12,0,0,Archer,Texas,8779.0,0.0,4.7
76,Archuleta,Colorado,37.19474156,-107.0476867,12,0,0,Archuleta,Colorado,12174.0,0.2,9.3
77,Arenac,Michigan,44.0636262,-83.89277559,38,2,0,Arenac,Michigan,15424.0,0.8,3.7
78,Arkansas,Arkansas,34.29145151,-91.37277296,66,0,0,Arkansas,Arkansas,18731.0,0.3,2.4
79,Arlington,Virginia,38.8767675,-77.10139853,2660,134,0,Arlington,Virginia,223945.0,26.4,5.8
80,Armstrong,Pennsylvania,40.81665618,-79.46290811,88,6,0,Armstrong,Pennsylvania,67979.0,0.7,3.4
82,Aroostook,Maine,46.65926321,-68.59841248,25,1,0,Aroostook,Maine,70005.0,0.1,4.4
84,Ascension,Louisiana,30.20406249,-90.91328409999998,1655,64,0,Ascension,Louisiana,114738.0,0.1,3.3
85,Ashe,North Carolina,36.43296207,-81.49862729,65,1,0,Ashe,North Carolina,27114.0,0.2,3.7
86,Ashland,Ohio,40.84772277,-82.27280781,78,2,0,Ashland,Ohio,53189.0,0.3,2.9
88,Ashley,Arkansas,33.19153461,-91.76984709999999,111,3,0,Ashley,Arkansas,21229.0,0.4,2.7
89,Ashtabula,Ohio,41.70860332,-80.74830218,452,44,0,Ashtabula,Ohio,99777.0,0.8,3.1
90,Asotin,Washington,46.18894415,-117.2022851,21,2,0,Asotin,Washington,22040.0,0.9,5.2
91,Assumption,Louisiana,29.89946234,-91.06461642,432,17,0,Assumption,Louisiana,23057.0,0.1,1.3
92,Atascosa,Texas,28.89333001,-98.52730485,275,2,0,Atascosa,Texas,47050.0,0.1,5.2
93,Atchison,Kansas,39.53185661,-95.30870026,44,0,0,Atchison,Kansas,16633.0,0.1,6.9
95,Athens,Ohio,39.33425634,-82.04278644,201,1,0,Athens,Ohio,64974.0,0.7,4.5
96,Atkinson,Georgia,31.29633502,-82.87545866,205,2,0,Atkinson,Georgia,8294.0,0.3,0.9
97,Atlantic,New Jersey,39.47538693,-74.65848483,3047,233,0,Atlantic,New Jersey,275376.0,7.4,2.0
98,Atoka,Oklahoma,34.37366573,-96.03802487,42,0,0,Atoka,Oklahoma,13906.0,0.1,5.2
99,Attala,Mississippi,33.08658803,-89.57838564,390,24,0,Attala,Mississippi,19175.0,0.2,1.1
100,Audrain,Missouri,39.215877,-91.84242683,143,1,0,Audrain,Missouri,25783.0,0.7,4.1
101,Audubon,Iowa,41.6844628,-94.90581859,17,1,0,Audubon,Iowa,5869.0,0.5,6.0
102,Auglaize,Ohio,40.55998859,-84.22421429999999,112,4,0,Auglaize,Ohio,45873.0,0.2,2.6
103,Augusta,Virginia,38.16404586,-79.12461614,213,2,0,Augusta,Virginia,74053.0,0.4,4.3
104,Aurora,South Dakota,43.71757685,-98.56050467,34,0,0,Aurora,South Dakota,2729.0,0.0,9.3
105,Austin,Texas,29.88548725,-96.27736949,140,0,0,Austin,Texas,28886.0,0.1,5.3
106,Autauga,Alabama,32.53952745,-86.64408227,733,17,0,Autauga,Alabama,55221.0,0.1,1.8
107,Avery,North Carolina,36.07569796,-81.92308483,31,0,0,Avery,North Carolina,17695.0,0.5,5.0
108,Avoyelles,Louisiana,31.07796211,-92.00079449,512,17,0,Avoyelles,Louisiana,41389.0,0.8,2.2
109,Baca,Colorado,37.31940883,-102.5603223,14,0,0,Baca,Colorado,3701.0,0.0,8.9
110,Bacon,Georgia,31.55456473,-82.45936528,314,5,0,Bacon,Georgia,11222.0,0.8,0.5
111,Bailey,Texas,34.06854817,-102.8299707,112,1,0,Bailey,Texas,7126.0,0.0,5.3
112,Baker,Florida,30.33060121,-82.28467476,180,4,0,Baker,Florida,27135.0,0.1,3.0
113,Baker,Georgia,31.32669878,-84.44218806,44,3,0,Baker,Georgia,3292.0,1.0,1.6
114,Baker,Oregon,44.70915557,-117.6749883,12,0,0,Baker,Oregon,16052.0,0.2,7.3
115,Baldwin,Alabama,30.72774991,-87.72207058,1396,11,0,Baldwin,Alabama,195121.0,0.1,3.9
116,Baldwin,Georgia,33.06882326,-83.24701748,681,35,0,Baldwin,Georgia,45795.0,0.1,1.6
117,Ballard,Kentucky,37.05842757,-88.99427697,22,0,0,Ballard,Kentucky,8256.0,1.8,2.6
118,Baltimore,Maryland,39.45784712,-76.62911955,8990,498,0,Baltimore,Maryland,822959.0,4.8,3.7
120,Bamberg,South Carolina,33.21927586,-81.05659969,206,3,0,Bamberg,South Carolina,15432.0,1.3,1.8
121,Bandera,Texas,29.74619598,-99.24598147,44,0,0,Bandera,Texas,20796.0,0.3,5.5
122,Banks,Georgia,34.35607081,-83.49644388,160,3,0,Banks,Georgia,18336.0,0.4,4.2
124,Bannock,Idaho,42.67002716,-112.2233311,158,1,0,Bannock,Idaho,83604.0,2.0,3.8
127,Barbour,Alabama,31.868263,-85.3871286,413,3,0,Barbour,Alabama,26932.0,0.4,1.6
128,Barbour,West Virginia,39.1307219,-80.00350858,20,1,0,Barbour,West Virginia,16731.0,0.3,3.9
129,Barnes,North Dakota,46.93579637,-98.06605978,25,0,0,Barnes,North Dakota,11097.0,0.4,4.3
130,Barnstable,Massachusetts,41.72980578,-70.28854339,1586,152,0,Barnstable,Massachusetts,214766.0,1.5,5.9
131,Barnwell,South Carolina,33.26679302,-81.43584352,153,1,0,Barnwell,South Carolina,22098.0,0.1,1.3
132,Barren,Kentucky,36.96469836,-85.93338945,135,2,0,Barren,Kentucky,42925.0,0.3,5.1
133,Barron,Wisconsin,45.42372701,-91.84833627,51,1,0,Barron,Wisconsin,45686.0,0.2,6.2
134,Barrow,Georgia,33.99148694,-83.71436292,660,27,0,Barrow,Georgia,72012.0,0.1,3.3
135,Barry,Michigan,42.59513984,-85.30834519,140,2,0,Barry,Michigan,59147.0,0.1,4.1
136,Barry,Missouri,36.70978521,-93.82919888,105,0,0,Barry,Missouri,35726.0,0.2,4.2
137,Bartholomew,Indiana,39.20744865,-85.89558181,609,45,0,Bartholomew,Indiana,79488.0,0.6,2.2
138,Barton,Kansas,38.47889676,-98.75636726,63,2,0,Barton,Kansas,27399.0,0.1,3.1
139,Barton,Missouri,37.50207671,-94.34757022,37,0,0,Barton,Missouri,12166.0,0.3,4.6
140,Bartow,Georgia,34.23732119,-84.83887523,1013,44,0,Bartow,Georgia,101336.0,0.7,4.0
141,Bastrop,Texas,30.10370699,-97.31206354,800,11,0,Bastrop,Texas,76948.0,0.3,3.8
142,Bates,Missouri,38.25271289,-94.34113157,16,1,0,Bates,Missouri,16643.0,0.8,6.3
143,Bath,Kentucky,38.14735938,-83.74588932,22,1,0,Bath,Kentucky,11978.0,0.2,4.4
145,Baxter,Arkansas,36.28784385,-92.33782872,31,0,0,Baxter,Arkansas,41040.0,0.4,4.0
146,Bay,Florida,30.26548745,-85.62122584,1430,8,0,Bay,Florida,175353.0,0.7,2.8
147,Bay,Michigan,43.70639106,-83.98731479,438,31,0,Bay,Michigan,106698.0,0.8,2.3
150,Beadle,South Dakota,44.41464384,-98.27858469,553,8,0,Beadle,South Dakota,18168.0,1.7,2.9
153,Beaufort,North Carolina,35.48531943,-76.84325809,157,0,0,Beaufort,North Carolina,47561.0,0.2,3.2
154,Beaufort,South Carolina,32.39226291,-80.72619758,2098,23,0,Beaufort,South Carolina,171420.0,0.5,6.9
155,Beauregard,Louisiana,30.64836518,-93.34173616,375,9,0,Beauregard,Louisiana,36259.0,0.4,1.3
156,Beaver,Oklahoma,36.7496847,-100.4758872,32,0,0,Beaver,Oklahoma,5530.0,0.6,3.9
157,Beaver,Pennsylvania,40.6825484,-80.34921611,870,79,0,Beaver,Pennsylvania,169785.0,1.4,3.3
159,Becker,Minnesota,46.93479392,-95.67158144,69,0,0,Becker,Minnesota,33138.0,0.4,6.6
160,Beckham,Oklahoma,35.26862449,-99.68128023,22,0,0,Beckham,Oklahoma,23300.0,0.1,2.4
161,Bedford,Pennsylvania,40.00522157,-78.48998442,93,4,0,Bedford,Pennsylvania,49086.0,0.2,4.1
162,Bedford,Tennessee,35.51123746,-86.45549096,635,9,0,Bedford,Tennessee,45986.0,0.2,3.4
163,Bedford,Virginia,37.3080028,-79.5281964,170,4,0,Bedford,Virginia,76463.0,0.4,4.0
164,Bee,Texas,28.41761668,-97.74215593,152,0,0,Bee,Texas,32659.0,0.0,1.9
165,Belknap,New Hampshire,43.51637314,-71.41684235,92,3,0,Belknap,New Hampshire,60399.0,0.0,4.2
166,Bell,Kentucky,36.73355174,-83.67766671,114,0,0,Bell,Kentucky,27950.0,0.2,3.1
167,Bell,Texas,31.03736027,-97.4785025,2243,14,0,Bell,Texas,326041.0,0.3,3.2
168,Belmont,Ohio,40.01625942,-80.9924051,572,24,0,Belmont,Ohio,69560.0,0.4,1.9
169,Beltrami,Minnesota,47.97373527,-94.93732139,58,0,0,Beltrami,Minnesota,45434.0,2.0,6.5
170,Ben Hill,Georgia,31.76095874,-83.22145359,232,1,0,Ben Hill,Georgia,17477.0,0.0,1.1
171,Benewah,Idaho,47.21754179,-116.6586851,29,0,0,Benewah,Idaho,9088.0,0.9,3.9
173,Bennington,Vermont,43.03519828,-73.09048868,74,1,0,Bennington,Vermont,36589.0,0.3,6.7
174,Benson,North Dakota,48.0683985,-99.35916363,16,0,0,Benson,North Dakota,6794.0,0.5,10.0
176,Benton,Arkansas,36.33644656,-94.25680817,3551,23,0,Benton,Arkansas,238198.0,0.2,4.5
177,Benton,Indiana,40.60626947,-87.31093999,51,0,0,Benton,Indiana,8752.0,0.7,5.9
178,Benton,Iowa,42.08011739,-92.06463573,78,1,0,Benton,Iowa,25803.0,0.1,5.1
179,Benton,Minnesota,45.69804958,-93.99514135,243,3,0,Benton,Minnesota,39221.0,1.0,4.9
180,Benton,Mississippi,34.81681228,-89.18945516,49,0,0,Benton,Mississippi,8470.0,0.0,1.7
181,Benton,Missouri,38.29503305,-93.28756116,26,0,0,Benton,Missouri,18854.0,0.7,6.6
182,Benton,Oregon,44.49167306,-123.4316987,116,6,0,Benton,Oregon,86495.0,2.1,7.6
183,Benton,Tennessee,36.07110411,-88.06849355,17,1,0,Benton,Tennessee,16261.0,0.1,2.3
184,Benton,Washington,46.23946995,-119.51208340000001,2487,93,0,Benton,Washington,184930.0,1.1,3.8
185,Benzie,Michigan,44.63899297,-86.01608482,16,0,0,Benzie,Michigan,17437.0,1.8,5.2
186,Bergen,New Jersey,40.96010917,-74.07164325,19907,2032,0,Bergen,New Jersey,926330.0,14.1,4.6
187,Berkeley,South Carolina,33.20222596,-79.94654523,2450,28,0,Berkeley,South Carolina,193613.0,0.8,3.0
188,Berkeley,West Virginia,39.46704621,-78.02414609,543,10,0,Berkeley,West Virginia,108724.0,1.0,2.9
189,Berks,Pennsylvania,40.41570541,-75.92457766,4710,358,0,Berks,Pennsylvania,413965.0,1.7,3.6
190,Berkshire,Massachusetts,42.37428441,-73.20524838,615,45,0,Berkshire,Massachusetts,129288.0,1.3,5.3
191,Bernalillo,New Mexico,35.05163625,-106.6703554,3200,97,0,Bernalillo,New Mexico,673943.0,1.8,4.1
192,Berrien,Georgia,31.27590016,-83.22529920000002,183,0,0,Berrien,Georgia,19019.0,0.3,2.4
193,Berrien,Michigan,41.95447397,-86.41313079999998,1026,61,0,Berrien,Michigan,155565.0,0.5,4.7
194,Bertie,North Carolina,36.0688473,-76.96545943,157,4,0,Bertie,North Carolina,20518.0,0.7,2.5
195,Bexar,Texas,29.44928723,-98.52019748,21067,201,0,Bexar,Texas,1825502.0,2.8,4.0
196,Bibb,Alabama,32.99642064,-87.12511459999996,232,2,0,Bibb,Alabama,22604.0,0.5,0.7
197,Bibb,Georgia,32.80904227,-83.70489165,1895,43,0,Bibb,Georgia,154816.0,1.0,2.5
198,Bienville,Louisiana,32.34569994,-93.05398492,272,28,0,Bienville,Louisiana,13977.0,0.3,4.3
199,Big Horn,Montana,45.42335905,-107.492347,121,5,0,Big Horn,Montana,13141.0,0.5,13.4
200,Big Horn,Wyoming,44.52405055,-107.9960365,30,0,0,Big Horn,Wyoming,11895.0,0.0,5.7
201,Big Stone,Minnesota,45.42712824,-96.41403739,18,0,0,Big Stone,Minnesota,5134.0,0.5,8.2
203,Bingham,Idaho,43.21672879999999,-112.3978437,91,1,0,Bingham,Idaho,45407.0,2.9,4.0
204,Black Hawk,Iowa,42.4704581,-92.30524729,2544,59,0,Black Hawk,Iowa,132496.0,0.5,2.6
205,Blackford,Indiana,40.47388153,-85.32499702,41,2,0,Blackford,Indiana,12476.0,0.4,2.1
206,Bladen,North Carolina,34.61296243,-78.56180059,455,5,0,Bladen,North Carolina,34720.0,0.4,1.8
207,Blaine,Idaho,43.4085812,-113.9752658,551,5,0,Blaine,Idaho,21309.0,2.4,9.4
209,Blaine,Oklahoma,35.87518314,-98.43307003,22,0,0,Blaine,Oklahoma,9810.0,0.1,5.4
210,Blair,Pennsylvania,40.47961444,-78.34917412,107,1,0,Blair,Pennsylvania,126448.0,0.5,2.4
211,Blanco,Texas,30.26640707,-98.3999852,49,1,0,Blanco,Texas,10723.0,0.0,5.5
213,Bleckley,Georgia,32.43829035,-83.33035166,91,1,0,Bleckley,Georgia,12746.0,0.4,3.2
214,Bledsoe,Tennessee,35.59942968,-85.20611967,634,1,0,Bledsoe,Tennessee,13686.0,0.3,4.9
215,Blount,Alabama,33.98210918,-86.56790593,344,1,0,Blount,Alabama,57710.0,0.4,2.3
216,Blount,Tennessee,35.68938198,-83.92847788,358,3,0,Blount,Tennessee,125188.0,0.2,3.7
217,Blue Earth,Minnesota,44.03554215,-94.06699781,600,2,0,Blue Earth,Minnesota,65125.0,1.2,4.5
218,Boise,Idaho,43.98829931,-115.7309284,11,0,0,Boise,Idaho,6885.0,0.7,12.9
219,Bolivar,Mississippi,33.79696941,-90.87372121,428,18,0,Bolivar,Mississippi,33803.0,0.2,2.3
220,Bollinger,Missouri,37.32449052,-90.02725304,27,1,0,Bollinger,Missouri,12356.0,0.7,4.5
221,Bon Homme,South Dakota,42.98914167,-97.88592746,13,0,0,Bon Homme,South Dakota,7013.0,0.0,13.6
222,Bond,Illinois,38.88829622,-89.43534887,22,2,0,Bond,Illinois,17313.0,1.8,5.2
223,Bonner,Idaho,48.29996017,-116.6017932,76,0,0,Bonner,Idaho,41066.0,0.4,7.2
224,Bonneville,Idaho,43.38713372,-111.6161537,225,1,0,Bonneville,Idaho,107788.0,2.5,4.0
225,Boone,Arkansas,36.3084504,-93.09374925,63,1,0,Boone,Arkansas,37227.0,0.0,2.5
226,Boone,Illinois,42.32359279,-88.82345779,640,21,0,Boone,Illinois,53851.0,0.3,4.5
227,Boone,Indiana,40.0509304,-86.46841646,497,44,0,Boone,Indiana,60511.0,0.2,4.7
228,Boone,Iowa,42.03657094,-93.9313999,174,1,0,Boone,Iowa,26401.0,0.5,4.7
229,Boone,Kentucky,38.97065142,-84.72615357,755,23,0,Boone,Kentucky,124617.0,1.0,3.8
230,Boone,Missouri,38.99186229,-92.30723575,627,2,0,Boone,Missouri,170770.0,1.0,3.9
232,Boone,West Virginia,38.01974191,-81.69888019,38,0,0,Boone,West Virginia,24000.0,0.0,1.5
233,Bosque,Texas,31.89978581,-97.63613524,41,0,0,Bosque,Texas,17971.0,0.2,4.8
234,Bossier,Louisiana,32.67932307,-93.60460152,1370,39,0,Bossier,Louisiana,123403.0,0.3,2.7
235,Botetourt,Virginia,37.55531756,-79.80982182,160,4,0,Botetourt,Virginia,33155.0,0.3,2.3
237,Boulder,Colorado,40.09313619,-105.3546767,1558,74,0,Boulder,Colorado,310032.0,5.3,11.1
239,Bourbon,Kansas,37.85508555,-94.84865997,56,1,0,Bourbon,Kansas,14812.0,0.2,5.4
240,Bourbon,Kentucky,38.2054607,-84.21827874,47,1,0,Bourbon,Kentucky,20013.0,0.4,7.6
241,Bowie,Texas,33.44626922,-94.41834132,533,16,0,Bowie,Texas,93155.0,0.5,2.1
244,Boyd,Kentucky,38.36176608,-82.68652187,101,3,0,Boyd,Kentucky,48917.0,0.3,1.6
246,Boyle,Kentucky,37.62680923,-84.8633779,48,0,0,Boyle,Kentucky,29388.0,0.1,4.4
247,Bracken,Kentucky,38.69158994,-84.08532444,20,0,0,Bracken,Kentucky,8425.0,0.0,4.6
248,Bradford,Florida,29.95079741,-82.16611613,145,2,0,Bradford,Florida,27223.0,0.1,1.7
249,Bradford,Pennsylvania,41.78869215,-76.51570822,59,3,0,Bradford,Pennsylvania,62228.0,0.3,3.5
250,Bradley,Arkansas,33.46755808,-92.15980837,82,2,0,Bradley,Arkansas,11206.0,0.6,5.6
251,Bradley,Tennessee,35.15739424,-84.857186,1061,5,0,Bradley,Tennessee,102062.0,0.2,4.0
252,Branch,Michigan,41.91600556,-85.05929476,278,2,0,Branch,Michigan,43706.0,0.4,5.1
253,Brantley,Georgia,31.19576557,-81.97743999,147,3,0,Brantley,Georgia,18452.0,1.6,4.1
255,Brazoria,Texas,29.18757369,-95.44563172,3834,28,0,Brazoria,Texas,331741.0,0.2,2.6
256,Brazos,Texas,30.663644800000004,-96.30205577,3066,35,0,Brazos,Texas,205271.0,2.7,2.9
257,Breathitt,Kentucky,37.52333168,-83.31959161,15,0,0,Breathitt,Kentucky,13591.0,0.3,1.1
258,Breckinridge,Kentucky,37.77377239,-86.42885017,30,2,0,Breckinridge,Kentucky,20061.0,0.6,3.2
259,Bremer,Iowa,42.77461496,-92.31795937,116,7,0,Bremer,Iowa,24539.0,0.2,4.2
260,Brevard,Florida,28.29409504,-80.73091022,3632,34,0,Brevard,Florida,553591.0,0.6,5.0
261,Brewster,Texas,29.81008251,-103.25203259999999,153,1,0,Brewster,Texas,9235.0,0.0,5.7
263,Bristol,Massachusetts,41.79228404,-71.10872211,8527,601,0,Bristol,Massachusetts,552763.0,2.5,3.1
264,Bristol,Rhode Island,41.71018079,-71.28652315,256,0,0,Bristol,Rhode Island,49176.0,2.3,4.8
267,Brooke,West Virginia,40.27367263,-80.57915332,30,0,0,Brooke,West Virginia,23665.0,0.6,3.7
268,Brookings,South Dakota,44.36974375,-96.79079945,95,0,0,Brookings,South Dakota,33046.0,0.4,5.0
269,Brooks,Georgia,30.83922642,-83.58303423,234,11,0,Brooks,Georgia,15637.0,0.3,6.5
270,Brooks,Texas,27.03103197,-98.21808402,41,0,0,Brooks,Texas,7221.0,0.1,3.1
271,Broome,New York,42.15903158,-75.81326086,841,60,0,Broome,New York,198093.0,3.3,3.5
272,Broomfield,Colorado,39.95998787,-105.0566324,348,30,0,Broomfield,Colorado,60699.0,4.0,7.6
273,Broward,Florida,26.15184651,-80.48725556,32814,464,0,Broward,Florida,1843152.0,3.1,4.9
275,Brown,Indiana,39.19605589,-86.22868909,46,1,0,Brown,Indiana,15011.0,1.0,3.8
276,Brown,Kansas,39.82652589,-95.56421698,23,0,0,Brown,Kansas,9880.0,0.2,7.0
277,Brown,Minnesota,44.24205652,-94.72562874,51,2,0,Brown,Minnesota,25391.0,0.6,7.3
279,Brown,Ohio,38.93416837,-83.86788395,62,1,0,Brown,Ohio,44247.0,0.1,5.2
280,Brown,South Dakota,45.58994323,-98.35165355,361,2,0,Brown,South Dakota,38060.0,0.3,3.8
281,Brown,Texas,31.77430356,-98.99907113,237,13,0,Brown,Texas,37833.0,0.4,1.6
282,Brown,Wisconsin,44.452655299999996,-88.00411844,3305,44,0,Brown,Wisconsin,254717.0,0.8,3.6
283,Brule,South Dakota,43.71756379,-99.08118954,34,0,0,Brule,South Dakota,5330.0,1.9,8.3
284,Brunswick,North Carolina,34.070565,-78.22814204,832,10,0,Brunswick,North Carolina,115926.0,0.4,4.8
285,Brunswick,Virginia,36.76366949,-77.8593436,143,1,0,Brunswick,Virginia,16930.0,1.4,2.3
286,Bryan,Georgia,32.00979311,-81.44002948,280,5,0,Bryan,Georgia,33151.0,0.0,1.9
287,Bryan,Oklahoma,33.96472458,-96.25903472,190,1,0,Bryan,Oklahoma,44003.0,0.5,2.9
288,Buchanan,Iowa,42.4709188,-91.83510825,66,1,0,Buchanan,Iowa,20998.0,0.2,5.0
289,Buchanan,Missouri,39.65816401,-94.80138942,956,5,0,Buchanan,Missouri,89561.0,1.1,2.0
290,Buchanan,Virginia,37.26818323,-82.03749726,46,0,0,Buchanan,Virginia,23486.0,0.5,0.7
291,Buckingham,Virginia,37.57242268,-78.52518834,577,6,0,Buckingham,Virginia,17068.0,0.5,1.9
292,Bucks,Pennsylvania,40.33682119,-75.10836643,6137,572,0,Bucks,Pennsylvania,626583.0,3.2,4.7
293,Buena Vista,Iowa,42.73545875,-95.15100162,1737,11,0,Buena Vista,Iowa,20507.0,0.1,5.5
295,Buffalo,Nebraska,40.85486962,-99.07500296,218,1,0,Buffalo,Nebraska,47958.0,0.1,4.3
296,Buffalo,South Dakota,44.07657829,-99.20814467,86,3,0,Buffalo,South Dakota,2038.0,0.0,9.0
297,Buffalo,Wisconsin,44.37835084,-91.75332578,16,2,0,Buffalo,Wisconsin,13319.0,0.3,7.1
298,Bullitt,Kentucky,37.97162523,-85.68955617,180,4,0,Bullitt,Kentucky,76961.0,0.4,2.6
299,Bulloch,Georgia,32.39577406,-81.74811421,684,6,0,Bulloch,Georgia,72386.0,0.9,5.3
300,Bullock,Alabama,32.10030533,-85.71265535,380,10,0,Bullock,Alabama,10678.0,0.7,2.8
301,Buncombe,North Carolina,35.61113393,-82.53305,928,40,0,Buncombe,North Carolina,247336.0,0.7,7.1
302,Bureau,Illinois,41.40385234,-89.5283051,43,2,0,Bureau,Illinois,34115.0,0.7,3.5
303,Burke,Georgia,33.05917989,-81.99928721,215,7,0,Burke,Georgia,23007.0,0.4,2.1
304,Burke,North Carolina,35.74989637,-81.70755735,1238,21,0,Burke,North Carolina,89548.0,0.2,2.4
306,Burleigh,North Dakota,46.97847375,-100.46452140000001,469,0,0,Burleigh,North Dakota,88223.0,0.2,4.1
307,Burleson,Texas,30.49273808,-96.62158484,154,0,0,Burleson,Texas,17293.0,0.1,2.6
308,Burlington,New Jersey,39.87681124,-74.66927768,5412,451,0,Burlington,New Jersey,450556.0,3.5,3.6
309,Burnet,Texas,30.78801353,-98.181887,256,3,0,Burnet,Texas,44144.0,0.1,6.3
311,Burt,Nebraska,41.85056773,-96.32605633,15,0,0,Burt,Nebraska,6647.0,0.0,6.5
312,Butler,Alabama,31.75300095,-86.68057478,656,31,0,Butler,Alabama,20354.0,0.0,1.7
313,Butler,Iowa,42.73172833,-92.79015971,70,2,0,Butler,Iowa,14966.0,0.3,5.1
314,Butler,Kansas,37.78134351,-96.83878537,102,0,0,Butler,Kansas,66092.0,0.0,3.6
315,Butler,Kentucky,37.20946153,-86.68748787,267,14,0,Butler,Kentucky,12835.0,0.1,2.7
316,Butler,Missouri,36.71462476,-90.40421163,122,0,0,Butler,Missouri,42951.0,0.7,2.4
317,Butler,Nebraska,41.22703692,-97.13106306,53,0,0,Butler,Nebraska,8256.0,0.0,7.8
318,Butler,Ohio,39.44012838,-84.57388716,1942,47,0,Butler,Ohio,372538.0,0.7,3.5
319,Butler,Pennsylvania,40.91152759,-79.91351055,444,13,0,Butler,Pennsylvania,185689.0,0.7,4.2
320,Butte,California,39.66727762,-121.6005252,416,4,0,Butte,California,222564.0,1.1,5.8
322,Butts,Georgia,33.283094500000004,-83.95435040000002,349,35,0,Butts,Georgia,23445.0,0.0,4.4
323,Cabarrus,North Carolina,35.3877799,-80.55267168,1721,33,0,Cabarrus,North Carolina,188375.0,0.5,4.2
324,Cabell,West Virginia,38.42424062,-82.23855912,202,0,0,Cabell,West Virginia,96824.0,1.1,2.2
325,Caddo,Louisiana,32.57991587,-93.88375652,4522,249,0,Caddo,Louisiana,254742.0,1.8,2.1
326,Caddo,Oklahoma,35.17364557,-98.37534464,210,11,0,Caddo,Oklahoma,29495.0,0.6,1.8
327,Calaveras,California,38.20537103,-120.55291299999999,75,0,0,Calaveras,California,44767.0,0.3,7.5
328,Calcasieu,Louisiana,30.22931235,-93.35400434,3435,72,0,Calcasieu,Louisiana,195887.0,0.4,1.8
329,Caldwell,Kentucky,37.14749129,-87.86948214,34,0,0,Caldwell,Kentucky,12826.0,0.3,0.9
330,Caldwell,Louisiana,32.0902519,-92.11752148,124,1,0,Caldwell,Louisiana,9990.0,0.0,3.0
331,Caldwell,Missouri,39.65620858,-93.98308093,15,1,0,Caldwell,Missouri,9083.0,0.0,5.9
332,Caldwell,North Carolina,35.95204977,-81.54799522,683,8,0,Caldwell,North Carolina,81758.0,0.1,3.6
333,Caldwell,Texas,29.83668859,-97.61814775,710,5,0,Caldwell,Texas,39347.0,0.2,3.0
334,Caledonia,Vermont,44.46548598,-72.10314651,22,0,0,Caledonia,Vermont,31012.0,0.3,7.2
335,Calhoun,Alabama,33.77483727,-85.82630386,577,6,0,Calhoun,Alabama,116648.0,0.2,2.7
337,Calhoun,Florida,30.40666734,-85.19394153,172,7,0,Calhoun,Florida,14615.0,0.0,1.7
338,Calhoun,Georgia,31.53169785,-84.62725131,167,6,0,Calhoun,Georgia,6489.0,2.8,8.6
340,Calhoun,Iowa,42.38521079,-94.64046046,66,2,0,Calhoun,Iowa,9914.0,0.4,5.4
341,Calhoun,Michigan,42.24633834,-85.00493569,622,39,0,Calhoun,Michigan,134790.0,0.8,3.3
342,Calhoun,Mississippi,33.93683395,-89.33686647,176,5,0,Calhoun,Mississippi,14789.0,0.6,1.8
343,Calhoun,South Carolina,33.66926881,-80.77722168,170,2,0,Calhoun,South Carolina,14958.0,0.4,3.3
344,Calhoun,Texas,28.47048236,-96.61633945,164,3,0,Calhoun,Texas,21666.0,0.8,2.8
346,Callahan,Texas,32.29760619,-99.37326312,28,2,0,Callahan,Texas,13532.0,0.3,2.4
347,Callaway,Missouri,38.83674754,-91.92186505,64,1,0,Callaway,Missouri,44566.0,0.1,4.0
348,Calloway,Kentucky,36.62093411,-88.2731593,117,1,0,Calloway,Kentucky,38106.0,0.3,2.7
349,Calumet,Wisconsin,44.0816316,-88.21780273,161,2,0,Calumet,Wisconsin,49678.0,0.2,4.2
350,Calvert,Maryland,38.53961642,-76.56820632,458,27,0,Calvert,Maryland,90114.0,3.3,4.3
352,Cambria,Pennsylvania,40.49527404,-78.71377428,137,3,0,Cambria,Pennsylvania,139381.0,1.2,2.7
353,Camden,Georgia,30.92951916,-81.66601818,305,2,0,Camden,Georgia,51445.0,0.2,2.3
354,Camden,Missouri,38.02199522,-92.76083747,90,2,0,Camden,Missouri,43927.0,0.3,4.6
355,Camden,New Jersey,39.80343818,-74.96388753,7746,551,0,Camden,New Jersey,511998.0,7.5,3.3
356,Camden,North Carolina,36.33804939,-76.15568396,39,1,0,Camden,North Carolina,10161.0,0.2,2.0
357,Cameron,Louisiana,29.87592238,-93.19310676,115,0,0,Cameron,Louisiana,6706.0,0.1,1.9
359,Cameron,Texas,26.14524221,-97.48140372,4175,79,0,Cameron,Texas,417947.0,0.7,2.2
360,Camp,Texas,32.97195142,-94.97790104,144,2,0,Camp,Texas,12516.0,1.0,3.3
361,Campbell,Kentucky,38.94384345,-84.37875208,342,13,0,Campbell,Kentucky,91475.0,2.2,2.9
363,Campbell,Tennessee,36.40355516,-84.15108559999999,75,1,0,Campbell,Tennessee,40176.0,0.1,1.2
364,Campbell,Virginia,37.20553386,-79.09678609,70,1,0,Campbell,Virginia,55012.0,0.1,3.4
365,Campbell,Wyoming,44.24886082,-105.54744040000001,89,0,0,Campbell,Wyoming,48013.0,2.4,2.2
366,Canadian,Oklahoma,35.5426055,-97.98465569,543,3,0,Canadian,Oklahoma,126193.0,0.2,3.0
367,Candler,Georgia,32.40209349,-82.07702563,99,0,0,Candler,Georgia,11031.0,0.1,1.6
368,Cannon,Tennessee,35.80990797,-86.05738983,60,0,0,Cannon,Tennessee,13787.0,0.2,3.4
369,Canyon,Idaho,43.61970148,-116.70954990000001,2281,12,0,Canyon,Idaho,198921.0,0.3,6.6
370,Cape Girardeau,Missouri,37.38489388,-89.6843587,361,3,0,Cape Girardeau,Missouri,77606.0,0.4,2.1
371,Cape May,New Jersey,39.15008829,-74.80170244,740,79,0,Cape May,New Jersey,95805.0,1.9,4.2
372,Carbon,Montana,45.22850116,-109.0274047,34,0,0,Carbon,Montana,10268.0,1.5,8.9
373,Carbon,Pennsylvania,40.91545395,-75.7068525,301,27,0,Carbon,Pennsylvania,64634.0,0.4,3.6
374,Carbon,Wyoming,41.69357844,-106.9326084,29,0,0,Carbon,Wyoming,15739.0,0.4,5.4
375,Caribou,Idaho,42.77149116,-111.5597683,19,0,0,Caribou,Idaho,6808.0,0.0,4.2
376,Carlisle,Kentucky,36.85372876,-88.96692220000001,13,1,0,Carlisle,Kentucky,4984.0,0.0,5.7
377,Carlton,Minnesota,46.59180601,-92.67601019,96,0,0,Carlton,Minnesota,35443.0,0.3,4.7
378,Caroline,Maryland,38.87172293,-75.82904158,345,3,0,Caroline,Maryland,32661.0,1.3,4.1
379,Caroline,Virginia,38.02679129,-77.34901405,145,4,0,Caroline,Virginia,29349.0,0.3,3.6
380,Carroll,Arkansas,36.34038560000001,-93.54270261,236,6,0,Carroll,Arkansas,27635.0,0.0,4.8
381,Carroll,Georgia,33.58138199,-85.07976677,1108,40,0,Carroll,Georgia,112595.0,0.5,2.7
382,Carroll,Illinois,42.06823429,-89.93395545,21,2,0,Carroll,Illinois,14926.0,0.8,5.3
383,Carroll,Indiana,40.580783200000006,-86.56198812,114,2,0,Carroll,Indiana,20014.0,0.2,5.2
384,Carroll,Iowa,42.03617207,-94.86032705,117,1,0,Carroll,Iowa,20629.0,0.4,6.8
385,Carroll,Kentucky,38.66599534,-85.12601074,88,1,0,Carroll,Kentucky,10830.0,0.0,2.0
386,Carroll,Maryland,39.56453592,-77.02373735,1224,116,0,Carroll,Maryland,167444.0,1.0,4.5
387,Carroll,Mississippi,33.44834567,-89.91994479,189,11,0,Carroll,Mississippi,10338.0,0.3,0.2
388,Carroll,Missouri,39.42762566,-93.50626255,39,0,0,Carroll,Missouri,9096.0,0.7,7.3
389,Carroll,New Hampshire,43.87498583,-71.20430216,68,0,0,Carroll,New Hampshire,47513.0,0.4,7.1
390,Carroll,Ohio,40.5789686,-81.09178213,71,3,0,Carroll,Ohio,28361.0,0.3,4.7
391,Carroll,Tennessee,35.97366108,-88.45189331,58,1,0,Carroll,Tennessee,28353.0,0.2,2.3
392,Carroll,Virginia,36.73066666,-80.73455942,255,10,0,Carroll,Virginia,29856.0,0.2,3.0
394,Carson City,Nevada,39.15509045,-119.7480219,223,6,0,Carson City,Nevada,54482.0,0.3,2.4
395,Carter,Kentucky,38.31690743,-83.05092385,48,1,0,Carter,Kentucky,27326.0,0.2,2.3
397,Carter,Oklahoma,34.25103751,-97.28552485,186,2,0,Carter,Oklahoma,48442.0,0.6,3.0
398,Carter,Tennessee,36.28969086,-82.12588974,120,2,0,Carter,Tennessee,56941.0,0.5,4.1
399,Carteret,North Carolina,34.8932941,-76.54120135,162,4,0,Carteret,North Carolina,68228.0,0.5,4.4
400,Carver,Minnesota,44.82017001,-93.80099179999999,509,2,0,Carver,Minnesota,95715.0,1.8,6.9
401,Cascade,Montana,47.30797024,-111.3467922,50,2,0,Cascade,Montana,82090.0,0.9,3.0
402,Casey,Kentucky,37.32533118,-84.92726209,49,2,0,Casey,Kentucky,15954.0,0.0,5.1
403,Cass,Illinois,39.96991073,-90.24734436,140,10,0,Cass,Illinois,13254.0,0.4,4.2
404,Cass,Indiana,40.76135835,-86.34830753,1651,9,0,Cass,Indiana,38476.0,0.8,2.1
405,Cass,Iowa,41.33149454,-94.92792482,29,0,0,Cass,Iowa,13590.0,1.5,5.9
406,Cass,Michigan,41.91522292,-85.99405727,197,6,0,Cass,Michigan,51952.0,0.1,4.2
407,Cass,Minnesota,46.95043611,-94.32603968,21,2,0,Cass,Minnesota,28519.0,0.8,7.9
408,Cass,Missouri,38.64789422,-94.353399,217,8,0,Cass,Missouri,100781.0,0.2,4.8
409,Cass,Nebraska,40.90899107,-96.13971217,95,1,0,Cass,Nebraska,25360.0,0.1,3.1
410,Cass,North Dakota,46.93201724,-97.24447190000001,2503,73,0,Cass,North Dakota,162500.0,0.8,3.3
411,Cass,Texas,33.07499881,-94.34646905,70,3,0,Cass,Texas,30328.0,0.3,2.3
412,Cassia,Idaho,42.28347888,-113.6012409,339,1,0,Cassia,Idaho,23369.0,0.2,4.2
413,Castro,Texas,34.53016752,-102.2617243,121,1,0,Castro,Texas,7948.0,0.6,3.8
414,Caswell,North Carolina,36.39312665,-79.33353281,156,2,0,Caswell,North Carolina,23174.0,0.1,2.2
415,Catahoula,Louisiana,31.66778967,-91.84526385,217,3,0,Catahoula,Louisiana,10247.0,0.2,0.8
416,Catawba,North Carolina,35.66211129,-81.2132617,1290,14,0,Catawba,North Carolina,154610.0,0.1,3.6
417,Catoosa,Georgia,34.89872298,-85.13757014,364,8,0,Catoosa,Georgia,65375.0,0.3,2.6
419,Cattaraugus,New York,42.24778241,-78.67923096,139,6,0,Cattaraugus,New York,78962.0,0.5,3.0
420,Cavalier,North Dakota,48.77286211,-98.46685243,18,0,0,Cavalier,North Dakota,3890.0,0.1,8.5
421,Cayuga,New York,42.91261714,-76.55731592,127,2,0,Cayuga,New York,79173.0,0.9,4.1
422,Cecil,Maryland,39.56647682,-75.94627411,531,29,0,Cecil,Maryland,101960.0,1.1,4.7
423,Cedar,Iowa,41.77233777,-91.13246684,96,1,0,Cedar,Iowa,18375.0,0.1,6.5
424,Cedar,Missouri,37.72391475,-93.85445441,12,0,0,Cedar,Missouri,13892.0,0.0,3.0
425,Cedar,Nebraska,42.598885100000004,-97.25311951,19,0,0,Cedar,Nebraska,8675.0,0.3,11.4
427,Centre,Pennsylvania,40.92058903,-77.82200624,253,8,0,Centre,Pennsylvania,157823.0,4.5,4.6
428,Cerro Gordo,Iowa,43.08177563,-93.2612239,345,1,0,Cerro Gordo,Iowa,43481.0,1.1,3.5
429,Chaffee,Colorado,38.74745778,-106.19265729999998,123,19,0,Chaffee,Colorado,18309.0,0.2,11.6
430,Chambers,Alabama,32.91360079,-85.39072749,693,32,0,Chambers,Alabama,34079.0,0.2,2.1
431,Chambers,Texas,29.70972016,-94.67154501,590,2,0,Chambers,Texas,37251.0,0.0,2.4
432,Champaign,Illinois,40.13919438,-88.20046615,1057,17,0,Champaign,Illinois,205766.0,6.6,4.8
433,Champaign,Ohio,40.13923427,-83.76875242,60,1,0,Champaign,Ohio,39393.0,0.3,2.5
435,Charles,Maryland,38.51092331,-76.98580666,1534,90,0,Charles,Maryland,152754.0,6.5,3.3
436,Charles City,Virginia,37.35358063,-77.05634116,41,3,0,Charles City,Virginia,7118.0,1.5,4.0
437,Charles Mix,South Dakota,43.20660134,-98.58856175,97,0,0,Charles Mix,South Dakota,9239.0,0.6,9.4
438,Charleston,South Carolina,32.82487866,-79.96512315,8250,67,0,Charleston,South Carolina,372904.0,2.0,5.7
439,Charlevoix,Michigan,45.37790017,-85.19614053,32,2,0,Charlevoix,Michigan,26134.0,0.7,5.6
440,Charlotte,Florida,26.90131002,-81.92949121,1212,79,0,Charlotte,Florida,165783.0,0.3,6.5
441,Charlotte,Virginia,37.01909701,-78.66314092,38,0,0,Charlotte,Virginia,12313.0,0.9,4.0
443,Charlton,Georgia,30.78371028,-82.13951596,132,2,0,Charlton,Georgia,13130.0,0.3,4.3
446,Chatham,Georgia,32.00043026,-81.12489526,2816,39,0,Chatham,Georgia,279290.0,2.6,3.5
447,Chatham,North Carolina,35.70394416,-79.25541492,1067,46,0,Chatham,North Carolina,67431.0,1.1,7.8
448,Chattahoochee,Georgia,32.34341231,-84.78809239,484,1,0,Chattahoochee,Georgia,11914.0,0.3,31.7
449,Chattooga,Georgia,34.47197698,-85.34535662,81,2,0,Chattooga,Georgia,25241.0,0.5,1.8
451,Chautauqua,New York,42.22769210000001,-79.36691763,180,7,0,Chautauqua,New York,132646.0,0.3,3.5
452,Chaves,New Mexico,33.36406072,-104.4665365,184,3,0,Chaves,New Mexico,65811.0,0.4,3.8
453,Cheatham,Tennessee,36.26136216,-87.08903581,301,3,0,Cheatham,Tennessee,39422.0,0.2,3.9
454,Cheboygan,Michigan,45.44787015,-84.50122149,29,2,0,Cheboygan,Michigan,25690.0,0.8,5.4
455,Chelan,Washington,47.87046092,-120.6173956,593,7,0,Chelan,Washington,74267.0,1.5,5.3
456,Chemung,New York,42.13891056,-76.7638805,149,2,0,Chemung,New York,88267.0,2.0,2.3
457,Chenango,New York,42.49430041,-75.60887553,171,6,0,Chenango,New York,49549.0,0.7,5.2
458,Cherokee,Alabama,34.17805983,-85.60638968,135,7,0,Cherokee,Alabama,26008.0,0.2,2.5
459,Cherokee,Georgia,34.24393976,-84.47431861,1828,48,0,Cherokee,Georgia,225944.0,0.4,7.8
460,Cherokee,Iowa,42.73538914,-95.62389402,85,1,0,Cherokee,Iowa,11853.0,0.1,5.5
461,Cherokee,Kansas,37.16928494,-94.8462897,56,1,0,Cherokee,Kansas,20952.0,0.0,2.4
462,Cherokee,North Carolina,35.1349263,-84.05970864,106,2,0,Cherokee,North Carolina,27092.0,0.3,4.2
463,Cherokee,Oklahoma,35.90692775,-94.99980896,131,1,0,Cherokee,Oklahoma,48097.0,0.8,2.8
464,Cherokee,South Carolina,35.05122251,-81.61828622,269,9,0,Cherokee,South Carolina,55863.0,0.1,1.2
465,Cherokee,Texas,31.837258000000002,-95.16559897,364,2,0,Cherokee,Texas,51167.0,0.0,1.4
468,Cheshire,New Hampshire,42.92015988,-72.25311043,77,2,0,Cheshire,New Hampshire,76430.0,0.4,8.1
469,Chester,Pennsylvania,39.97291773,-75.74768357,4053,333,0,Chester,Pennsylvania,509797.0,2.8,6.3
470,Chester,South Carolina,34.69249168,-81.1583216,301,4,0,Chester,South Carolina,32556.0,0.4,3.4
471,Chester,Tennessee,35.42527478,-88.6095842,83,0,0,Chester,Tennessee,17324.0,0.2,3.1
472,Chesterfield,South Carolina,34.64137396,-80.15640140000002,468,15,0,Chesterfield,South Carolina,46192.0,0.1,1.5
473,Chesterfield,Virginia,37.37373208,-77.58680140000001,3278,63,0,Chesterfield,Virginia,328176.0,0.7,4.6
476,Cheyenne,Nebraska,41.21999357,-102.9941693,21,0,0,Cheyenne,Nebraska,10077.0,0.0,3.4
477,Chickasaw,Iowa,43.06001295,-92.31773347,32,0,0,Chickasaw,Iowa,12244.0,0.2,6.9
478,Chickasaw,Mississippi,33.91983202,-88.9481545,304,19,0,Chickasaw,Mississippi,17391.0,0.0,2.2
479,Chicot,Arkansas,33.26458973,-91.29539209,224,3,0,Chicot,Arkansas,11353.0,1.1,0.4
481,Chilton,Alabama,32.85044126,-86.7173256,356,3,0,Chilton,Alabama,43819.0,0.2,1.9
482,Chippewa,Michigan,46.29552653,-84.54353449,21,0,0,Chippewa,Michigan,38586.0,0.8,3.5
483,Chippewa,Minnesota,45.02343421,-95.56403693,82,1,0,Chippewa,Minnesota,12154.0,0.9,5.9
484,Chippewa,Wisconsin,45.06939744,-91.28068855,141,0,0,Chippewa,Wisconsin,63209.0,0.2,6.4
485,Chisago,Minnesota,45.5021011,-92.90861945,112,1,0,Chisago,Minnesota,53834.0,1.0,4.4
486,Chittenden,Vermont,44.46322849,-73.08359212,662,39,0,Chittenden,Vermont,159711.0,2.4,5.9
487,Choctaw,Alabama,32.02227341,-88.26564429999998,221,12,0,Choctaw,Alabama,13395.0,0.1,0.8
488,Choctaw,Mississippi,33.34598242,-89.24809382,76,4,0,Choctaw,Mississippi,8354.0,0.1,1.2
489,Choctaw,Oklahoma,34.02807439,-95.54771129,128,1,0,Choctaw,Oklahoma,15120.0,1.1,2.8
490,Chowan,North Carolina,36.12908077,-76.60118385,39,0,0,Chowan,North Carolina,14656.0,0.0,2.7
491,Christian,Illinois,39.54581621,-89.27780482,52,4,0,Christian,Illinois,34200.0,0.8,4.2
492,Christian,Kentucky,36.89267803,-87.49055367,309,4,0,Christian,Kentucky,74159.0,0.4,2.4
493,Christian,Missouri,36.9711783,-93.18537118,80,1,0,Christian,Missouri,80904.0,0.1,4.6
494,Churchill,Nevada,39.58105744,-118.3394607,29,1,0,Churchill,Nevada,24252.0,0.1,3.4
495,Cibola,New Mexico,34.91131525,-107.998876,253,14,0,Cibola,New Mexico,27382.0,0.4,6.3
497,Citrus,Florida,28.84804315,-82.47614748,618,16,0,Citrus,Florida,139654.0,0.4,5.6
498,Clackamas,Oregon,45.18787398,-122.2179634,1027,29,0,Clackamas,Oregon,389438.0,2.9,7.2
499,Claiborne,Louisiana,32.82308512,-92.99526883,154,10,0,Claiborne,Louisiana,16639.0,0.0,1.5
500,Claiborne,Mississippi,31.97061673,-90.90702196,318,11,0,Claiborne,Mississippi,9330.0,0.5,4.2
501,Claiborne,Tennessee,36.48319149,-83.65947309,80,0,0,Claiborne,Tennessee,31748.0,0.1,4.0
502,Clallam,Washington,48.04754642,-123.92263190000001,62,0,0,Clallam,Washington,72397.0,2.3,4.9
503,Clare,Michigan,43.98794227,-84.84819859999998,34,3,0,Clare,Michigan,30710.0,1.1,4.6
504,Clarendon,South Carolina,33.66610974,-80.21647898,500,47,0,Clarendon,South Carolina,34178.0,0.5,2.6
505,Clarion,Pennsylvania,41.19265812,-79.42413524,66,2,0,Clarion,Pennsylvania,39454.0,0.2,4.3
506,Clark,Arkansas,34.04613432,-93.17484713,76,0,0,Clark,Arkansas,22751.0,0.4,4.3
507,Clark,Illinois,39.33425789,-87.78705622,41,0,0,Clark,Illinois,16159.0,0.0,4.0
508,Clark,Indiana,38.48015445,-85.70510334,728,44,0,Clark,Indiana,113181.0,0.6,2.5
509,Clark,Kansas,37.23577007,-99.81883015,34,1,0,Clark,Kansas,2145.0,0.0,4.2
510,Clark,Kentucky,37.9689263,-84.14615986,117,6,0,Clark,Kentucky,35657.0,0.5,3.7
512,Clark,Nevada,36.21458855,-115.0130241,24824,498,0,Clark,Nevada,2035572.0,4.0,3.1
513,Clark,Ohio,39.91592258,-83.78498252,832,10,0,Clark,Ohio,136827.0,0.9,3.3
514,Clark,South Dakota,44.85834507,-97.72925109,15,0,0,Clark,South Dakota,3625.0,0.0,15.8
515,Clark,Washington,45.77568046,-122.48292040000001,1086,33,0,Clark,Washington,444506.0,2.4,6.3
516,Clark,Wisconsin,44.73483377,-90.61207486,118,7,0,Clark,Wisconsin,34518.0,0.1,10.7
517,Clarke,Alabama,31.68099859,-87.83548597,329,6,0,Clarke,Alabama,25070.0,0.2,1.1
518,Clarke,Georgia,33.95436462,-83.37124007,1007,15,0,Clarke,Georgia,120905.0,4.1,2.9
519,Clarke,Iowa,41.02868181,-93.78499767,145,3,0,Clarke,Iowa,9280.0,0.9,4.2
520,Clarke,Mississippi,32.04158545,-88.68896219999998,234,25,0,Clarke,Mississippi,16362.0,0.3,3.2
521,Clarke,Virginia,39.11271747,-77.99199425,61,0,0,Clarke,Virginia,14299.0,0.2,5.6
522,Clatsop,Oregon,45.99712889,-123.660711,56,0,0,Clatsop,Oregon,37382.0,1.0,6.0
523,Clay,Alabama,33.26984193,-85.85836077,92,2,0,Clay,Alabama,13537.0,0.6,2.1
524,Clay,Arkansas,36.36826212,-90.4148172,84,3,0,Clay,Arkansas,15400.0,0.0,2.0
525,Clay,Florida,29.98319144,-81.85609986,1602,39,0,Clay,Florida,197417.0,0.2,4.1
526,Clay,Georgia,31.62221166,-84.97713865,63,2,0,Clay,Georgia,3104.0,0.6,6.8
528,Clay,Indiana,39.39561833,-87.11723506,65,5,0,Clay,Indiana,26686.0,0.2,2.6
529,Clay,Iowa,43.08247182,-95.15096481,151,1,0,Clay,Iowa,16537.0,0.3,6.2
530,Clay,Kansas,39.34948772,-97.16518128,13,2,0,Clay,Kansas,8421.0,0.1,6.5
531,Clay,Kentucky,37.16451126,-83.712575,88,4,0,Clay,Kentucky,21300.0,0.0,2.1
532,Clay,Minnesota,46.89289518,-96.48761922,627,38,0,Clay,Minnesota,60879.0,0.9,5.2
533,Clay,Mississippi,33.65358105,-88.77784255,268,11,0,Clay,Mississippi,20279.0,0.1,1.1
534,Clay,Missouri,39.31132056,-94.41850862,579,13,0,Clay,Missouri,230361.0,0.7,4.2
535,Clay,Nebraska,40.52439441,-98.05126296,33,0,0,Clay,Nebraska,6382.0,0.0,4.8
536,Clay,North Carolina,35.05704275,-83.74353633,18,0,0,Clay,North Carolina,10656.0,0.0,2.4
537,Clay,South Dakota,42.91296147,-96.97656917,94,0,0,Clay,South Dakota,14011.0,0.4,5.9
538,Clay,Tennessee,36.55151008,-85.53930419,27,0,0,Clay,Tennessee,7780.0,0.1,4.3
539,Clay,Texas,33.78686685,-98.20771198,19,0,0,Clay,Texas,10479.0,0.0,4.0
540,Clay,West Virginia,38.46231092,-81.07652217,13,1,0,Clay,West Virginia,9141.0,0.0,3.0
541,Clayton,Georgia,33.54187245,-84.35594188,2984,82,0,Clayton,Georgia,267234.0,2.3,2.3
542,Clayton,Iowa,42.84443388,-91.34133693,51,3,0,Clayton,Iowa,17806.0,0.2,6.9
543,Clear Creek,Colorado,39.68864463,-105.6463118,21,1,0,Clear Creek,Colorado,9136.0,1.2,13.0
544,Clearfield,Pennsylvania,41.00110782,-78.47592663,95,0,0,Clearfield,Pennsylvania,81343.0,0.2,2.4
546,Clearwater,Minnesota,47.57992111,-95.37790562,14,0,0,Clearwater,Minnesota,8752.0,0.6,5.8
547,Cleburne,Alabama,33.67679204,-85.52005899,53,1,0,Cleburne,Alabama,15002.0,0.1,3.4
548,Cleburne,Arkansas,35.53864922,-92.02640019,137,4,0,Cleburne,Arkansas,25711.0,0.4,4.2
549,Clermont,Ohio,39.04847534,-84.15375786,532,7,0,Clermont,Ohio,200285.0,0.6,4.8
550,Cleveland,Arkansas,33.89723187,-92.18537045,38,0,0,Cleveland,Arkansas,8510.0,0.6,1.7
551,Cleveland,North Carolina,35.33553364,-81.55204486,544,9,0,Cleveland,North Carolina,97178.0,0.5,2.3
552,Cleveland,Oklahoma,35.20413532,-97.32519562,1448,40,0,Cleveland,Oklahoma,268614.0,0.5,3.1
553,Clinch,Georgia,30.91395822,-82.70432472,123,3,0,Clinch,Georgia,6791.0,0.1,2.4
554,Clinton,Illinois,38.60704876,-89.42385254,252,16,0,Clinton,Illinois,37929.0,0.6,3.7
555,Clinton,Indiana,40.30319754,-86.47277257,291,3,0,Clinton,Indiana,32835.0,0.0,2.9
556,Clinton,Iowa,41.89981633,-90.53275096,144,1,0,Clinton,Iowa,48365.0,0.9,3.4
558,Clinton,Michigan,42.94400871,-84.60145248,296,12,0,Clinton,Michigan,76905.0,1.2,4.4
559,Clinton,Missouri,39.6013098,-94.40465394,35,0,0,Clinton,Missouri,20498.0,0.6,2.8
560,Clinton,New York,44.74530905,-73.67875352,110,4,0,Clinton,New York,81685.0,0.6,2.8
561,Clinton,Ohio,39.41485808,-83.80852286,92,2,0,Clinton,Ohio,41892.0,0.3,3.5
562,Clinton,Pennsylvania,41.23255967,-77.63785995,96,5,0,Clinton,Pennsylvania,39614.0,0.3,4.6
563,Cloud,Kansas,39.48028352,-97.64925343,26,0,0,Cloud,Kansas,9339.0,0.0,5.4
564,Coahoma,Mississippi,34.22772299,-90.60415045,237,6,0,Coahoma,Mississippi,25254.0,1.0,2.2
565,Coal,Oklahoma,34.58840127,-96.29798747,12,0,0,Coal,Oklahoma,5812.0,0.4,5.3
566,Cobb,Georgia,33.94243204,-84.5761255,7388,256,0,Cobb,Georgia,719133.0,1.3,7.1
567,Cochise,Arizona,31.87934684,-109.7516088,1095,27,0,Cochise,Arizona,129647.0,0.5,5.5
569,Cocke,Tennessee,35.9278914,-83.11828725,152,0,0,Cocke,Tennessee,35321.0,0.0,1.4
570,Coconino,Arizona,35.83883429,-111.7707178,2523,102,0,Coconino,Arizona,136701.0,1.9,5.0
571,Codington,South Dakota,44.97788119,-97.18827677,93,0,0,Codington,South Dakota,27750.0,0.2,4.8
572,Coffee,Alabama,31.39932826,-85.98901039,453,4,0,Coffee,Alabama,50884.0,0.1,2.8
573,Coffee,Georgia,31.54892966,-82.85492059999999,954,17,0,Coffee,Georgia,43003.0,0.6,2.3
574,Coffee,Tennessee,35.49090731,-86.07311784,155,0,0,Coffee,Tennessee,53448.0,0.0,2.7
575,Coffey,Kansas,38.2365018,-95.73379515,56,8,0,Coffey,Kansas,8458.0,0.4,3.7
577,Colbert,Alabama,34.69847452,-87.80168544,582,6,0,Colbert,Alabama,54444.0,0.2,1.5
578,Cole,Missouri,38.50455671,-92.27860244,116,2,0,Cole,Missouri,76533.0,0.3,2.6
580,Coles,Illinois,39.51949084,-88.22358557,202,17,0,Coles,Illinois,53037.0,0.9,3.9
581,Colfax,Nebraska,41.57486951,-97.0868542,680,4,0,Colfax,Nebraska,10522.0,0.2,4.2
583,Colleton,South Carolina,32.87582989,-80.67641292,508,23,0,Colleton,South Carolina,38004.0,0.0,2.7
584,Collier,Florida,26.11091986,-81.34687065,6731,96,0,Collier,Florida,341091.0,2.6,7.0
585,Collin,Texas,33.18820114,-96.57264368,4685,58,0,Collin,Texas,862215.0,1.1,7.8
588,Colorado,Texas,29.622097999999998,-96.5273805,179,0,0,Colorado,Texas,20757.0,1.1,1.8
589,Colquitt,Georgia,31.18810588,-83.7677946,1278,20,0,Colquitt,Georgia,46024.0,1.3,2.7
590,Columbia,Arkansas,33.21230701,-93.22642793,112,5,0,Columbia,Arkansas,24327.0,0.1,2.5
591,Columbia,Florida,30.22509788,-82.62160164,624,4,0,Columbia,Florida,67806.0,0.1,3.1
592,Columbia,Georgia,33.54534185,-82.263524,980,12,0,Columbia,Georgia,136204.0,0.1,2.3
593,Columbia,New York,42.24819348,-73.63089095,489,37,0,Columbia,New York,62195.0,2.3,6.7
594,Columbia,Oregon,45.94464254,-123.08908980000001,57,0,0,Columbia,Oregon,49389.0,0.8,5.4
595,Columbia,Pennsylvania,41.04821986,-76.40565017,421,35,0,Columbia,Pennsylvania,66912.0,0.5,3.0
597,Columbia,Wisconsin,43.46492199,-89.33589004,125,1,0,Columbia,Wisconsin,56607.0,0.2,3.5
598,Columbiana,Ohio,40.76932373,-80.78094576,1405,60,0,Columbiana,Ohio,105987.0,0.5,2.8
599,Columbus,North Carolina,34.26744084,-78.65801424,646,39,0,Columbus,North Carolina,57230.0,0.2,1.9
600,Colusa,California,39.17881957,-122.2331726,135,0,0,Colusa,California,21396.0,0.3,4.9
601,Comal,Texas,29.80811278,-98.27647225,1017,29,0,Comal,Texas,119632.0,0.1,7.6
603,Comanche,Oklahoma,34.65973764,-98.47195055,517,9,0,Comanche,Oklahoma,125531.0,0.7,7.7
604,Comanche,Texas,31.94854689,-98.55876441,128,2,0,Comanche,Texas,13623.0,0.0,3.7
605,Concho,Texas,31.32635934,-99.86473038,15,0,0,Concho,Texas,4086.0,0.0,5.0
606,Concordia,Louisiana,31.44817835,-91.63814433,153,7,0,Concordia,Louisiana,20449.0,0.4,2.0
607,Conecuh,Alabama,31.43401703,-86.99320044,247,8,0,Conecuh,Alabama,12865.0,0.0,1.3
608,Conejos,Colorado,37.201606,-106.19174879999998,18,0,0,Conejos,Colorado,8249.0,0.6,5.7
609,Contra Costa,California,37.91923498,-121.9289527,5023,92,0,Contra Costa,California,1096068.0,10.1,5.8
610,Converse,Wyoming,42.97272268,-105.5081848,28,0,0,Converse,Wyoming,14101.0,4.2,4.8
611,Conway,Arkansas,35.26205537,-92.70506566,98,3,0,Conway,Arkansas,21110.0,0.6,2.2
612,Cook,Georgia,31.16068491,-83.42947229,249,4,0,Cook,Georgia,17033.0,0.0,4.3
613,Cook,Illinois,41.84144849,-87.81658794,96186,4741,0,Cook,Illinois,5236393.0,18.4,4.2
615,Cooke,Texas,33.63979567,-97.21240912,98,0,0,Cooke,Texas,38761.0,0.2,3.9
616,Cooper,Missouri,38.844478,-92.80896081,30,0,0,Cooper,Missouri,17593.0,0.1,3.5
617,Coos,New Hampshire,44.69063265,-71.30633239,11,0,0,Coos,New Hampshire,31870.0,0.1,5.8
618,Coos,Oregon,43.17406868,-124.0594514,55,0,0,Coos,Oregon,62775.0,0.9,6.3
619,Coosa,Alabama,32.93690146,-86.24847739,69,1,0,Coosa,Alabama,11027.0,0.5,2.1
620,Copiah,Mississippi,31.86977774,-90.44565118,690,16,0,Copiah,Mississippi,28921.0,0.4,1.5
621,Corson,South Dakota,45.70889983,-101.1970473,20,0,0,Corson,South Dakota,4149.0,1.5,19.0
622,Cortland,New York,42.59509207,-76.07048931,59,0,0,Cortland,New York,49043.0,0.8,4.8
623,Coryell,Texas,31.39078397,-97.79936155,416,3,0,Coryell,Texas,76128.0,0.3,3.0
624,Coshocton,Ohio,40.30096166,-81.91729018,155,4,0,Coshocton,Ohio,36724.0,0.4,5.2
625,Costilla,Colorado,37.27732493,-105.4276548,22,0,0,Costilla,Colorado,3581.0,1.3,5.9
627,Cotton,Oklahoma,34.28845626,-98.37053567,12,2,0,Cotton,Oklahoma,6112.0,0.1,4.6
628,Cottonwood,Minnesota,44.00715262,-95.18138802,142,0,0,Cottonwood,Minnesota,11632.0,1.2,7.4
629,Covington,Alabama,31.247785399999998,-86.45050893,439,13,0,Covington,Alabama,37886.0,0.2,2.2
630,Covington,Mississippi,31.63225413,-89.55389939,466,5,0,Covington,Mississippi,19471.0,0.1,0.4
632,Coweta,Georgia,33.35334302,-84.76129976,914,16,0,Coweta,Georgia,133416.0,0.7,4.6
633,Cowley,Kansas,37.23781842,-96.83776647,88,1,0,Cowley,Kansas,36079.0,0.0,4.3
634,Cowlitz,Washington,46.19074721,-122.6782231,289,0,0,Cowlitz,Washington,102338.0,0.2,4.8
635,Craig,Oklahoma,36.76268118,-95.20916602,27,0,0,Craig,Oklahoma,14744.0,0.3,3.6
637,Craighead,Arkansas,35.83018283,-90.63235729,610,7,0,Craighead,Arkansas,101409.0,0.3,3.4
638,Crane,Texas,31.43052248,-102.5143314,64,9,0,Crane,Texas,4730.0,0.6,0.0
639,Craven,North Carolina,35.11833364,-77.08398081,470,8,0,Craven,North Carolina,104450.0,0.3,3.0
640,Crawford,Arkansas,35.58928601,-94.2446814,291,3,0,Crawford,Arkansas,61748.0,0.2,2.0
641,Crawford,Georgia,32.71391813,-83.98061238,56,0,0,Crawford,Georgia,12539.0,1.2,1.8
642,Crawford,Illinois,39.0032229,-87.75954624,20,0,0,Crawford,Illinois,19541.0,0.3,2.2
643,Crawford,Indiana,38.28814402,-86.44518825,35,0,0,Crawford,Indiana,10591.0,0.2,2.8
644,Crawford,Iowa,42.03718237,-95.3819718,680,3,0,Crawford,Iowa,17252.0,0.3,5.1
645,Crawford,Kansas,37.50675523,-94.85245778,313,1,0,Crawford,Kansas,39304.0,0.3,2.7
646,Crawford,Michigan,44.68255561,-84.61006219,84,5,0,Crawford,Michigan,13895.0,1.0,4.4
647,Crawford,Missouri,37.97663738,-91.30528104,23,0,0,Crawford,Missouri,24660.0,0.1,3.8
648,Crawford,Ohio,40.85065156,-82.91989099,140,5,0,Crawford,Ohio,42725.0,0.3,2.1
649,Crawford,Pennsylvania,41.68447709,-80.10760592,80,1,0,Crawford,Pennsylvania,87343.0,0.3,4.5
650,Crawford,Wisconsin,43.23870316,-90.93073686,45,0,0,Crawford,Wisconsin,16483.0,0.4,5.1
651,Creek,Oklahoma,35.90230551,-96.37086028,223,8,0,Creek,Oklahoma,70761.0,0.2,4.2
652,Crenshaw,Alabama,31.72941803,-86.31593104,140,3,0,Crenshaw,Alabama,13938.0,0.0,4.6
653,Crisp,Georgia,31.92289565,-83.76811843,312,13,0,Crisp,Georgia,23314.0,0.0,3.5
654,Crittenden,Arkansas,35.21247318,-90.30839406,879,14,0,Crittenden,Arkansas,49765.0,0.6,1.8
655,Crittenden,Kentucky,37.35839237,-88.08826090000002,12,1,0,Crittenden,Kentucky,9222.0,0.3,4.6
656,Crockett,Tennessee,35.81830662,-89.14916269,71,3,0,Crockett,Tennessee,14600.0,0.0,3.7
657,Crockett,Texas,30.72367027,-101.4134238,41,1,0,Crockett,Texas,3699.0,0.0,1.6
658,Crook,Oregon,44.14230227,-120.356297,19,1,0,Crook,Oregon,20956.0,0.0,6.0
660,Crosby,Texas,33.61431553,-101.30003640000001,35,2,0,Crosby,Texas,6007.0,0.0,1.4
661,Cross,Arkansas,35.29631396,-90.77185818,102,1,0,Cross,Arkansas,17467.0,0.1,3.9
662,Crow Wing,Minnesota,46.48096553,-94.06755609,116,12,0,Crow Wing,Minnesota,63048.0,0.4,5.8
663,Crowley,Colorado,38.32608609,-103.7844965,71,1,0,Crowley,Colorado,5551.0,0.0,2.3
665,Cullman,Alabama,34.13020303,-86.86888037,689,6,0,Cullman,Alabama,80965.0,0.1,2.6
666,Culpeper,Virginia,38.48199985,-77.95630870000002,863,12,0,Culpeper,Virginia,48424.0,1.2,5.1
667,Cumberland,Illinois,39.27432424,-88.2401158,30,0,0,Cumberland,Illinois,10943.0,0.1,6.7
669,Cumberland,Maine,43.8370751,-70.37226999,1897,67,0,Cumberland,Maine,286119.0,1.4,6.0
670,Cumberland,New Jersey,39.37199394,-75.10712559,3063,152,0,Cumberland,New Jersey,157035.0,1.8,1.6
671,Cumberland,North Carolina,35.04762133,-78.82623165,1686,43,0,Cumberland,North Carolina,324603.0,0.7,2.3
672,Cumberland,Pennsylvania,40.1625372,-77.26130755,961,66,0,Cumberland,Pennsylvania,241427.0,0.7,3.8
673,Cumberland,Tennessee,35.95271721,-84.99840585,228,5,0,Cumberland,Tennessee,57455.0,0.1,3.1
674,Cumberland,Virginia,37.51328851,-78.24398086,61,0,0,Cumberland,Virginia,9859.0,0.2,4.0
675,Cuming,Nebraska,41.91637624,-96.78730772,39,0,0,Cuming,Nebraska,9078.0,0.0,6.6
676,Currituck,North Carolina,36.36123664,-75.95876401,32,0,0,Currituck,North Carolina,24492.0,0.2,3.3
677,Curry,New Mexico,34.57421077,-103.34688759999999,267,1,0,Curry,New Mexico,50497.0,0.3,1.5
681,Custer,Montana,46.25319932,-105.57375259999998,38,0,0,Custer,Montana,11945.0,0.4,5.2
682,Custer,Nebraska,41.39374521,-99.72805369,40,3,0,Custer,Nebraska,10802.0,0.0,8.1
683,Custer,Oklahoma,35.63853802,-99.00170785,85,0,0,Custer,Oklahoma,28978.0,0.2,3.4
684,Custer,South Dakota,43.67741105,-103.45345209999999,11,0,0,Custer,South Dakota,8394.0,0.8,9.0
685,Cuyahoga,Ohio,41.424119,-81.65918339,9509,400,0,Cuyahoga,Ohio,1263189.0,4.9,3.5
686,Dade,Georgia,34.854916700000004,-85.50490424,79,1,0,Dade,Georgia,16445.0,0.2,7.2
688,Dakota,Minnesota,44.67172617,-93.06299363,2781,96,0,Dakota,Minnesota,408456.0,3.3,4.7
689,Dakota,Nebraska,42.39040144,-96.56656425,1859,36,0,Dakota,Nebraska,20798.0,0.2,2.5
690,Dale,Alabama,31.43037123,-85.61095742,414,2,0,Dale,Alabama,49866.0,0.1,2.6
691,Dallam,Texas,36.27787176,-102.60207249999999,126,1,0,Dallam,Texas,7014.0,0.5,2.1
692,Dallas,Alabama,32.32688101,-87.10866709999998,1028,10,0,Dallas,Alabama,42154.0,0.3,2.2
693,Dallas,Arkansas,33.97042763,-92.65167437,13,0,0,Dallas,Arkansas,7868.0,0.0,2.0
694,Dallas,Iowa,41.68560356,-94.04127625,1428,31,0,Dallas,Iowa,74892.0,0.2,4.3
695,Dallas,Missouri,37.6811355,-93.02127031,20,1,0,Dallas,Missouri,16564.0,0.1,5.5
696,Dallas,Texas,32.76670599,-96.77796049999999,35914,477,0,Dallas,Texas,2485003.0,2.9,4.1
697,Dane,Wisconsin,43.06601594,-89.41733797,3148,33,0,Dane,Wisconsin,510198.0,5.4,4.6
699,Dare,North Carolina,35.66520691,-75.71767334,124,1,0,Dare,North Carolina,34863.0,0.0,5.6
700,Darke,Ohio,40.13412966,-84.6194517,261,26,0,Darke,Ohio,52356.0,1.0,4.4
701,Darlington,South Carolina,34.33358335,-79.96027485,590,17,0,Darlington,South Carolina,67922.0,0.0,3.0
702,Dauphin,Pennsylvania,40.41377078,-76.77993242,2309,149,0,Dauphin,Pennsylvania,271094.0,2.2,3.3
703,Davidson,North Carolina,35.79115496,-80.21256572,1277,16,0,Davidson,North Carolina,163867.0,0.2,3.0
704,Davidson,Tennessee,36.17007426,-86.78646056,14205,155,0,Davidson,Tennessee,658506.0,2.3,4.6
705,Davie,North Carolina,35.93099927,-80.54496571,273,4,0,Davie,North Carolina,41447.0,0.4,4.2
706,Daviess,Indiana,38.70186039,-87.07185406,151,17,0,Daviess,Indiana,32411.0,0.4,3.4
707,Daviess,Kentucky,37.73028906,-87.09019479999998,518,8,0,Daviess,Kentucky,98173.0,0.3,1.8
708,Daviess,Missouri,39.96145298,-93.98519678,11,0,0,Daviess,Missouri,8277.0,0.1,6.1
709,Davis,Iowa,40.74773536,-92.41005468,43,1,0,Davis,Iowa,8742.0,0.1,6.6
710,Davis,Utah,40.99001837,-112.1139997,1976,6,0,Davis,Utah,323374.0,2.8,5.2
711,Davison,South Dakota,43.67490933,-98.14458906,57,0,0,Davison,South Dakota,19787.0,0.3,4.3
713,Dawson,Georgia,34.44244079,-84.16964071,184,3,0,Dawson,Georgia,22673.0,0.1,7.7
715,Dawson,Nebraska,40.87028216,-99.82014609999999,878,8,0,Dawson,Nebraska,24069.0,0.1,3.5
716,Dawson,Texas,32.74255572,-101.94772420000001,92,1,0,Dawson,Texas,13542.0,0.3,1.8
717,Day,South Dakota,45.367281,-97.60737498,19,0,0,Day,South Dakota,5618.0,0.4,13.0
719,De Soto,Louisiana,32.05457447,-93.74130302,449,21,0,De Soto,Louisiana,26965.0,0.3,1.8
720,De Witt,Illinois,40.17514519,-88.90959682,18,0,0,De Witt,Illinois,16388.0,0.2,3.3
721,DeKalb,Alabama,34.45946862,-85.80782906,1118,7,0,DeKalb,Alabama,71068.0,0.0,2.1
722,DeKalb,Georgia,33.76944049,-84.22396017,8784,183,0,DeKalb,Georgia,716331.0,8.1,5.5
723,DeKalb,Illinois,41.89373302,-88.76958483,657,22,0,DeKalb,Illinois,104345.0,2.0,3.3
724,DeKalb,Indiana,41.39804622,-84.99906934,171,4,0,DeKalb,Indiana,42449.0,0.2,2.3
725,DeKalb,Missouri,39.89201062,-94.40476508,17,0,0,DeKalb,Missouri,12782.0,0.7,3.7
726,DeKalb,Tennessee,35.97616272,-85.83689361,100,0,0,DeKalb,Tennessee,19038.0,0.0,2.3
727,DeSoto,Florida,27.18677893,-81.80941373,951,11,0,DeSoto,Florida,34957.0,6.2,2.6
728,DeSoto,Mississippi,34.87625235,-89.99091418,2050,20,0,DeSoto,Mississippi,168586.0,0.1,2.7
729,DeWitt,Texas,29.08101855,-97.35681170000001,188,3,0,DeWitt,Texas,20540.0,0.0,4.0
730,Deaf Smith,Texas,34.96522957,-102.6054267,410,17,0,Deaf Smith,Texas,19245.0,0.3,2.6
731,Dearborn,Indiana,39.14647946,-84.97333539,277,23,0,Dearborn,Indiana,49679.0,0.5,2.6
732,Decatur,Georgia,30.87967778,-84.57619536,324,8,0,Decatur,Georgia,27378.0,1.2,1.3
733,Decatur,Indiana,39.30712658,-85.50087166,257,32,0,Decatur,Indiana,26240.0,0.6,2.5
734,Decatur,Iowa,40.73742757,-93.78645949,13,0,0,Decatur,Iowa,8249.0,0.1,6.8
736,Decatur,Tennessee,35.60048904,-88.11043779,39,0,0,Decatur,Tennessee,11686.0,0.1,3.5
738,Defiance,Ohio,41.32398837,-84.49076944,56,3,0,Defiance,Ohio,38669.0,0.3,2.3
739,Del Norte,California,41.74228275,-123.89740630000001,61,0,0,Del Norte,California,27788.0,0.6,5.9
740,Delaware,Indiana,40.22787247,-85.39732772,484,52,0,Delaware,Indiana,117335.0,1.8,2.9
741,Delaware,Iowa,42.47104597,-91.3664492,57,1,0,Delaware,Iowa,17507.0,0.1,8.8
742,Delaware,New York,42.19837623,-74.96709306,92,4,0,Delaware,New York,46901.0,1.5,6.3
743,Delaware,Ohio,40.27942393,-83.00457058,784,15,0,Delaware,Ohio,185433.0,0.3,6.8
744,Delaware,Oklahoma,36.40823634,-94.80325046,261,17,0,Delaware,Oklahoma,41409.0,0.1,3.7
745,Delaware,Pennsylvania,39.91680171,-75.40243663,7606,669,0,Delaware,Pennsylvania,561683.0,10.4,4.0
746,Delta,Colorado,38.86246243,-107.8631342,84,1,0,Delta,Colorado,30214.0,0.3,7.4
747,Delta,Michigan,45.90484910000001,-86.9080745,34,3,0,Delta,Michigan,36712.0,0.6,3.3
750,Denton,Texas,33.20521901,-97.11691153,4162,40,0,Denton,Texas,731851.0,1.0,6.2
751,Denver,Colorado,39.76018276,-104.8725695,8011,395,0,Denver,Colorado,649654.0,6.8,6.5
752,Des Moines,Iowa,40.92012606,-91.18326592,103,2,0,Des Moines,Iowa,40208.0,0.3,2.7
753,Deschutes,Oregon,43.91570171,-121.2289121,276,0,0,Deschutes,Oregon,166622.0,0.5,9.4
754,Desha,Arkansas,33.83011025,-91.25500948,85,1,0,Desha,Arkansas,12379.0,0.3,1.3
758,Dewey,South Dakota,45.15639647,-100.8709139,37,0,0,Dewey,South Dakota,5579.0,1.9,15.2
762,Dickinson,Iowa,43.37787725,-95.1510206,309,3,0,Dickinson,Iowa,16967.0,0.5,6.6
763,Dickinson,Kansas,38.86600962,-97.15532383,23,1,0,Dickinson,Kansas,19516.0,0.2,3.3
764,Dickinson,Michigan,46.00999672,-87.86961634,21,2,0,Dickinson,Michigan,26012.0,0.2,2.2
765,Dickson,Tennessee,36.14669837,-87.35891709,295,0,0,Dickson,Tennessee,50472.0,0.7,2.2
766,Dillon,South Carolina,34.39007791,-79.37741872,402,14,0,Dillon,South Carolina,31435.0,0.8,1.9
767,Dimmit,Texas,28.42270064,-99.75645095,38,0,0,Dimmit,Texas,10682.0,0.1,5.7
768,Dinwiddie,Virginia,37.07544585,-77.63451754,160,2,0,Dinwiddie,Virginia,28110.0,0.3,3.5
769,District of Columbia,District of Columbia,38.90417773,-77.01655992,10946,568,0,District of Columbia,District of Columbia,647484.0,37.4,5.0
771,Dixie,Florida,29.60631086,-83.15724673,125,4,0,Dixie,Florida,16091.0,0.0,7.0
772,Dixon,Nebraska,42.49188363,-96.86782408,57,1,0,Dixon,Nebraska,5866.0,0.1,5.2
773,Dodge,Georgia,32.17265114,-83.16948926,146,2,0,Dodge,Georgia,21180.0,0.3,1.5
774,Dodge,Minnesota,44.02238415,-92.86244324,100,0,0,Dodge,Minnesota,20290.0,1.0,6.4
775,Dodge,Nebraska,41.58071748,-96.65598179,714,8,0,Dodge,Nebraska,36725.0,0.2,3.3
776,Dodge,Wisconsin,43.41576662,-88.70928178,528,5,0,Dodge,Wisconsin,88547.0,0.1,3.7
778,Doniphan,Kansas,39.79067154,-95.14056866,26,0,0,Doniphan,Kansas,7859.0,0.4,5.7
779,Donley,Texas,34.96517499,-100.8140093,33,0,0,Donley,Texas,3588.0,0.0,8.2
780,Dooly,Georgia,32.15630737,-83.79746561,224,13,0,Dooly,Georgia,14293.0,0.1,3.7
781,Door,Wisconsin,44.95856458,-87.30002707,58,3,0,Door,Wisconsin,27731.0,0.4,5.1
782,Dorchester,Maryland,38.45413522,-76.02752426,217,5,0,Dorchester,Maryland,32534.0,0.5,3.2
783,Dorchester,South Carolina,33.0794369,-80.40502652,1669,8,0,Dorchester,South Carolina,145715.0,0.6,3.8
784,Dougherty,Georgia,31.53328528,-84.21722377,2182,156,0,Dougherty,Georgia,93310.0,1.9,3.7
785,Douglas,Colorado,39.33133796,-104.930001,1201,53,0,Douglas,Colorado,306974.0,1.7,10.1
786,Douglas,Georgia,33.70291126,-84.77026156,1499,40,0,Douglas,Georgia,136520.0,0.9,5.1
787,Douglas,Illinois,39.76768052,-88.21854195,61,0,0,Douglas,Illinois,19826.0,0.1,5.3
788,Douglas,Kansas,38.88503636,-95.2925121,461,0,0,Douglas,Kansas,114967.0,2.0,4.2
789,Douglas,Minnesota,45.93348491,-95.45335469,75,0,0,Douglas,Minnesota,36620.0,0.4,5.4
790,Douglas,Missouri,36.9325593,-92.49905109,16,0,0,Douglas,Missouri,13516.0,0.2,3.3
791,Douglas,Nebraska,41.29518299,-96.15085305,8233,100,0,Douglas,Nebraska,537655.0,1.3,3.5
792,Douglas,Nevada,38.912862,-119.61713329999999,88,0,0,Douglas,Nevada,47259.0,0.3,5.0
793,Douglas,Oregon,43.27941273,-123.16729099999999,66,0,0,Douglas,Oregon,107194.0,0.2,6.2
795,Douglas,Washington,47.7361335,-119.69293700000001,400,3,0,Douglas,Washington,39599.0,0.5,3.3
796,Douglas,Wisconsin,46.43222285,-91.91595768,63,0,0,Douglas,Wisconsin,43799.0,1.5,3.7
797,Drew,Arkansas,33.59035001,-91.71777921,96,2,0,Drew,Arkansas,18740.0,0.0,2.3
798,DuPage,Illinois,41.85116968,-88.08642662,9810,491,0,DuPage,Illinois,930412.0,6.4,5.2
799,Dubois,Indiana,38.36597551,-86.87924170000002,344,7,0,Dubois,Indiana,42291.0,0.3,3.7
800,Dubuque,Iowa,42.46815349,-90.88181925,1016,23,0,Dubuque,Iowa,95906.0,1.0,4.4
803,Dunklin,Missouri,36.27167174,-90.09122243,136,3,0,Dunklin,Missouri,31562.0,0.2,2.4
804,Dunn,North Dakota,47.35423935,-102.61604679999999,26,0,0,Dunn,North Dakota,4195.0,0.7,13.5
805,Dunn,Wisconsin,44.94562799,-91.8962481,57,0,0,Dunn,Wisconsin,44159.0,0.1,5.9
806,Duplin,North Carolina,34.93449805,-77.93140529,1696,33,0,Duplin,North Carolina,59453.0,0.0,2.5
807,Durham,North Carolina,36.03638492,-78.87608331,4655,71,0,Durham,North Carolina,288817.0,3.9,4.8
808,Dutchess,New York,41.76486060000001,-73.74356679,4318,152,0,Dutchess,New York,296928.0,5.0,5.5
809,Duval,Florida,30.33225875,-81.66976468,13724,87,0,Duval,Florida,890673.0,1.8,4.8
810,Duval,Texas,27.68184592,-98.50864568,89,0,0,Duval,Texas,11577.0,0.0,3.3
811,Dyer,Tennessee,36.05931946,-89.41542855,310,3,0,Dyer,Tennessee,38054.0,0.0,1.3
812,Eagle,Colorado,39.62754308,-106.6933637,783,8,0,Eagle,Colorado,52576.0,7.1,6.4
813,Early,Georgia,31.32155345,-84.90255207,313,31,0,Early,Georgia,10579.0,0.2,1.7
814,East Baton Rouge,Louisiana,30.53842039,-91.09777565,7421,279,0,East Baton Rouge,Louisiana,444690.0,1.7,2.7
815,East Carroll,Louisiana,32.73926954,-91.23425694,463,1,0,East Carroll,Louisiana,7501.0,0.0,3.6
816,East Feliciana,Louisiana,30.84425359,-91.04976723,361,33,0,East Feliciana,Louisiana,19855.0,0.0,2.7
817,Eastland,Texas,32.32743996,-98.83243566,20,0,0,Eastland,Texas,18328.0,0.1,3.1
818,Eaton,Michigan,42.59599185,-84.83740035,358,7,0,Eaton,Michigan,108341.0,0.7,3.1
819,Eau Claire,Wisconsin,44.726614,-91.28609183,346,1,0,Eau Claire,Wisconsin,101281.0,1.1,5.7
820,Echols,Georgia,30.71101099,-82.89687287,199,0,0,Echols,Georgia,4048.0,1.1,3.7
821,Ector,Texas,31.86898877,-102.54294279999999,1370,19,0,Ector,Texas,149557.0,0.5,2.1
822,Eddy,New Mexico,32.47167456,-104.3053527,150,1,0,Eddy,New Mexico,55641.0,0.4,2.7
824,Edgar,Illinois,39.6809186,-87.74759563,23,0,0,Edgar,Illinois,17992.0,0.4,3.0
825,Edgecombe,North Carolina,35.91230639,-77.59436892,402,9,0,Edgecombe,North Carolina,55280.0,0.9,2.7
826,Edgefield,South Carolina,33.77221995,-81.96231108,136,4,0,Edgefield,South Carolina,26466.0,0.9,2.4
827,Edmonson,Kentucky,37.21218923,-86.23955613,81,12,0,Edmonson,Kentucky,12105.0,0.0,1.0
832,Effingham,Georgia,32.36616021,-81.34280942,354,1,0,Effingham,Georgia,54630.0,0.1,3.0
833,Effingham,Illinois,39.05935711,-88.58969584,34,1,0,Effingham,Illinois,34332.0,0.4,3.8
834,El Dorado,California,38.77965956,-120.5233166,350,0,0,El Dorado,California,182093.0,1.7,7.8
835,El Paso,Colorado,38.83240149,-104.5251411,3168,117,0,El Paso,Colorado,655024.0,0.8,5.7
836,El Paso,Texas,31.76980765,-106.23632749999999,9953,152,0,El Paso,Texas,831095.0,1.5,3.2
837,Elbert,Colorado,39.28656773,-104.1358721,65,2,0,Elbert,Colorado,23855.0,0.2,11.7
838,Elbert,Georgia,34.11302332,-82.83936148,191,0,0,Elbert,Georgia,19537.0,0.4,2.2
840,Elk,Pennsylvania,41.42822061,-78.64524744,31,0,0,Elk,Pennsylvania,31370.0,0.7,4.0
841,Elkhart,Indiana,41.59761169,-85.85875695,3720,61,0,Elkhart,Indiana,200685.0,0.4,2.9
842,Elko,Nevada,41.14531606,-115.3577619,264,1,0,Elko,Nevada,51562.0,12.1,3.3
844,Ellis,Kansas,38.91458712,-99.31751551,55,0,0,Ellis,Kansas,28993.0,0.4,2.7
846,Ellis,Texas,32.34894117,-96.79371841,1729,21,0,Ellis,Texas,157058.0,0.4,4.7
847,Ellsworth,Kansas,38.69677695,-98.20462799,14,0,0,Ellsworth,Kansas,6410.0,0.0,4.3
848,Elmore,Alabama,32.59785413,-86.14415284,1101,24,0,Elmore,Alabama,80763.0,0.1,2.2
849,Elmore,Idaho,43.3507101,-115.4701578,105,2,0,Elmore,Idaho,26175.0,0.4,4.3
850,Emanuel,Georgia,32.59221302,-82.30239915,218,3,0,Emanuel,Georgia,22731.0,1.3,1.4
851,Emmet,Iowa,43.37782951,-94.67858943,99,0,0,Emmet,Iowa,9917.0,0.4,5.2
852,Emmet,Michigan,45.52625509,-84.89083249,40,2,0,Emmet,Michigan,33018.0,0.2,5.1
855,Erath,Texas,32.23602653,-98.21773417,288,1,0,Erath,Texas,40039.0,0.4,3.6
856,Erie,New York,42.76249024,-78.73063652,7833,646,0,Erie,New York,921584.0,3.7,2.6
857,Erie,Ohio,41.36796058,-82.62904521,308,22,0,Erie,Ohio,76141.0,0.7,2.3
858,Erie,Pennsylvania,41.99253829,-80.03301954,740,13,0,Erie,Pennsylvania,279858.0,1.7,3.7
859,Escambia,Alabama,31.1256789,-87.15918694,522,8,0,Escambia,Alabama,37935.0,0.4,1.1
860,Escambia,Florida,30.67652764,-87.37284571,4483,54,0,Escambia,Florida,306327.0,0.6,9.2
862,Essex,Massachusetts,42.6687626,-70.94687179,16530,1136,0,Essex,Massachusetts,763849.0,5.8,5.5
863,Essex,New Jersey,40.78681335,-74.24657979,19058,2078,0,Essex,New Jersey,791609.0,20.6,3.1
864,Essex,New York,44.11630765,-73.77297842,51,0,0,Essex,New York,38912.0,0.7,5.3
866,Essex,Virginia,37.93357639,-76.94230311,66,0,0,Essex,Virginia,11151.0,0.2,3.7
868,Etowah,Alabama,34.04567266,-86.04051873,1104,14,0,Etowah,Alabama,103766.0,0.3,3.8
870,Evangeline,Louisiana,30.72985248,-92.39915924,359,1,0,Evangeline,Louisiana,33768.0,0.1,1.9
871,Evans,Georgia,32.15328841,-81.8870105,65,0,0,Evans,Georgia,10814.0,0.3,5.3
872,Fairfax,Virginia,38.83677558,-77.27565836,14574,500,0,Fairfax,Virginia,1128722.0,9.8,5.8
874,Fairfield,Connecticut,41.26809896,-73.3881171,16960,1385,0,Fairfield,Connecticut,939983.0,9.9,5.6
875,Fairfield,Ohio,39.75107189,-82.63088163,751,17,0,Fairfield,Ohio,149112.0,0.3,4.1
876,Fairfield,South Carolina,34.39287073,-81.1195624,382,22,0,Fairfield,South Carolina,23108.0,0.2,3.4
877,Fall River,South Dakota,43.23929297,-103.5275691,13,0,0,Fall River,South Dakota,6906.0,0.3,5.9
879,Falls,Texas,31.25350609,-96.93630086,57,0,0,Falls,Texas,17410.0,1.7,3.2
881,Fannin,Georgia,34.86430205,-84.316964,133,1,0,Fannin,Georgia,23742.0,0.0,5.8
882,Fannin,Texas,33.59564294,-96.10751083,145,8,0,Fannin,Texas,33748.0,0.1,5.2
883,Faribault,Minnesota,43.67381499,-93.94787458,64,0,0,Faribault,Minnesota,14230.0,0.3,7.3
884,Faulk,South Dakota,45.07082625,-99.14535601,24,1,0,Faulk,South Dakota,2359.0,0.0,21.5
885,Faulkner,Arkansas,35.14719007,-92.33717519,810,4,0,Faulkner,Arkansas,119343.0,0.2,3.0
886,Fauquier,Virginia,38.73564842,-77.80647472,497,8,0,Fauquier,Virginia,67463.0,1.4,7.2
887,Fayette,Alabama,33.72076938,-87.73886638,90,2,0,Fayette,Alabama,16896.0,0.0,1.9
888,Fayette,Georgia,33.41357794,-84.49089434,549,19,0,Fayette,Georgia,108655.0,1.1,7.1
889,Fayette,Illinois,39.00072038,-89.02452658,26,3,0,Fayette,Illinois,22136.0,0.8,4.0
890,Fayette,Indiana,39.63684962,-85.17797541,108,7,0,Fayette,Indiana,23773.0,0.3,2.4
891,Fayette,Iowa,42.86271799,-91.8441231,61,0,0,Fayette,Iowa,20589.0,0.3,8.4
892,Fayette,Kentucky,38.0368225,-84.45576892,1940,37,0,Fayette,Kentucky,308306.0,1.9,3.9
893,Fayette,Ohio,39.56021306,-83.4562016,58,0,0,Fayette,Ohio,28769.0,0.5,2.7
894,Fayette,Pennsylvania,39.92041012,-79.64291195,213,4,0,Fayette,Pennsylvania,134851.0,0.5,2.6
895,Fayette,Tennessee,35.19615831,-89.41399032,393,6,0,Fayette,Tennessee,38814.0,0.0,3.6
896,Fayette,Texas,29.87788372,-96.92076062,174,4,0,Fayette,Texas,24849.0,0.2,4.5
897,Fayette,West Virginia,38.02974928,-81.08286634,84,4,0,Fayette,West Virginia,45534.0,0.1,1.6
899,Fentress,Tennessee,36.38128818,-84.92870012,29,0,0,Fentress,Tennessee,17931.0,0.0,2.1
902,Fillmore,Minnesota,43.67394126,-92.08980382,38,0,0,Fillmore,Minnesota,20843.0,2.8,7.1
903,Fillmore,Nebraska,40.52458567,-97.59646937,20,1,0,Fillmore,Nebraska,5697.0,0.0,5.3
904,Finney,Kansas,38.04340344,-100.73819379999999,1605,10,0,Finney,Kansas,37133.0,0.6,2.7
905,Fisher,Texas,32.74281316,-100.40193020000001,14,1,0,Fisher,Texas,3858.0,0.0,2.3
906,Flagler,Florida,29.45933576,-81.31508595,529,5,0,Flagler,Florida,100783.0,0.2,8.1
907,Flathead,Montana,48.29575866,-114.05205690000001,84,2,0,Flathead,Montana,93333.0,0.6,6.1
908,Fleming,Kentucky,38.36758311,-83.69657514,31,0,0,Fleming,Kentucky,14544.0,0.4,4.2
909,Florence,South Carolina,34.02361754,-79.70189312,1728,59,0,Florence,South Carolina,138330.0,0.3,3.7
911,Floyd,Georgia,34.26268279,-85.21577392,755,15,0,Floyd,Georgia,96169.0,0.3,3.8
912,Floyd,Indiana,38.32117957,-85.90385377,425,44,0,Floyd,Indiana,75900.0,1.0,3.1
913,Floyd,Iowa,43.06000529999999,-92.78940097,84,2,0,Floyd,Iowa,16050.0,0.7,5.5
914,Floyd,Kentucky,37.56213922,-82.74750924,44,1,0,Floyd,Kentucky,38649.0,0.1,1.7
915,Floyd,Texas,34.07227468,-101.3031546,53,2,0,Floyd,Texas,6178.0,0.0,5.9
916,Floyd,Virginia,36.9302126,-80.36738849,25,1,0,Floyd,Virginia,15523.0,0.0,7.2
917,Fluvanna,Virginia,37.84157909,-78.27715475,139,8,0,Fluvanna,Virginia,26014.0,0.1,6.4
919,Fond du Lac,Wisconsin,43.75354908,-88.48885325,403,6,0,Fond du Lac,Wisconsin,101920.0,0.3,3.7
920,Ford,Illinois,40.59706922,-88.22350769,42,1,0,Ford,Illinois,13835.0,0.1,4.9
921,Ford,Kansas,37.69200114,-99.88825298,1976,8,0,Ford,Kansas,34714.0,0.4,1.8
923,Forest,Wisconsin,45.66678019,-88.77084892,48,3,0,Forest,Wisconsin,9150.0,0.1,6.5
924,Forrest,Mississippi,31.18961454,-89.25832496,1071,43,0,Forrest,Mississippi,76267.0,0.6,1.5
925,Forsyth,Georgia,34.22604035,-84.12315129999998,1223,15,0,Forsyth,Georgia,196236.0,0.5,9.3
926,Forsyth,North Carolina,36.12859861,-80.25459052,3785,40,0,Forsyth,North Carolina,361684.0,1.2,4.7
927,Fort Bend,Texas,29.52704478,-95.77219463,5015,63,0,Fort Bend,Texas,658331.0,1.7,4.5
929,Fountain,Indiana,40.12361933,-87.24217689,38,2,0,Fountain,Indiana,16888.0,0.4,2.5
930,Franklin,Alabama,34.44235334,-87.84289505,960,16,0,Franklin,Alabama,31634.0,0.2,1.4
931,Franklin,Arkansas,35.51202821,-93.89299569,34,1,0,Franklin,Arkansas,17866.0,1.0,7.1
932,Franklin,Florida,29.83791238,-84.82731662,45,0,0,Franklin,Florida,11628.0,0.7,5.4
933,Franklin,Georgia,34.37525597,-83.23159927,270,1,0,Franklin,Georgia,22110.0,0.0,4.8
934,Franklin,Idaho,42.18332217,-111.81496659999999,33,0,0,Franklin,Idaho,12914.0,0.5,5.4
935,Franklin,Illinois,37.99189086,-88.92567818,50,0,0,Franklin,Illinois,39694.0,0.6,3.0
936,Franklin,Indiana,39.4142482,-85.06062647,128,8,0,Franklin,Indiana,22935.0,0.1,3.9
937,Franklin,Iowa,42.73270384,-93.26256925,117,0,0,Franklin,Iowa,10489.0,0.2,5.4
938,Franklin,Kansas,38.56443815,-95.28644341,94,1,0,Franklin,Kansas,25753.0,0.6,4.3
939,Franklin,Kentucky,38.2379395,-84.87962551,168,4,0,Franklin,Kentucky,49778.0,1.4,2.5
940,Franklin,Louisiana,32.13675181,-91.67589857,575,14,0,Franklin,Louisiana,20550.0,0.2,2.6
941,Franklin,Maine,44.97330019,-70.44381045,41,1,0,Franklin,Maine,30402.0,0.5,5.6
942,Franklin,Massachusetts,42.58119713,-72.58602547,384,57,0,Franklin,Massachusetts,71144.0,1.6,6.0
943,Franklin,Mississippi,31.47786634,-90.89672989,58,2,0,Franklin,Mississippi,7857.0,0.0,0.6
944,Franklin,Missouri,38.41127108,-91.07522826,305,18,0,Franklin,Missouri,101828.0,0.6,2.7
946,Franklin,New York,44.59040891,-74.29926032,36,0,0,Franklin,New York,51280.0,0.7,5.8
947,Franklin,North Carolina,36.081519,-78.28708884,518,22,0,Franklin,North Carolina,62296.0,0.1,4.9
948,Franklin,Ohio,39.96995815,-83.01115755,12574,449,0,Franklin,Ohio,1215761.0,2.6,3.9
949,Franklin,Pennsylvania,39.92956518,-77.72157791,1016,46,0,Franklin,Pennsylvania,152285.0,0.3,3.4
950,Franklin,Tennessee,35.15634626,-86.09201039,124,3,0,Franklin,Tennessee,41138.0,0.0,3.0
951,Franklin,Texas,33.17653242,-95.21917243,61,1,0,Franklin,Texas,10599.0,0.0,5.5
952,Franklin,Vermont,44.85627605,-72.91249563,110,6,0,Franklin,Vermont,48418.0,0.5,4.4
953,Franklin,Virginia,36.99536167,-79.88023649,114,1,0,Franklin,Virginia,56315.0,0.5,5.2
954,Franklin,Washington,46.53351425,-118.9018212,2505,39,0,Franklin,Washington,86443.0,0.7,3.3
956,Frederick,Maryland,39.47296601,-77.39999394,2619,120,0,Frederick,Maryland,241373.0,2.9,6.3
957,Frederick,Virginia,39.20172582,-78.25974949,558,6,0,Frederick,Virginia,81340.0,0.2,4.6
959,Freeborn,Minnesota,43.67385583,-93.34884422,316,0,0,Freeborn,Minnesota,30897.0,0.9,3.3
960,Freestone,Texas,31.70422788,-96.15072516,77,0,0,Freestone,Texas,19586.0,0.3,1.4
961,Fremont,Colorado,38.47362326,-105.4399667,46,0,0,Fremont,Colorado,46809.0,0.4,4.0
962,Fremont,Idaho,44.22800938,-111.48099429999999,12,0,0,Fremont,Idaho,12945.0,0.3,6.4
963,Fremont,Iowa,40.74542720000001,-95.60129045,11,0,0,Fremont,Iowa,7106.0,0.1,4.8
964,Fremont,Wyoming,43.04183996,-108.6296893,397,0,0,Fremont,Wyoming,40755.0,1.0,6.3
965,Fresno,California,36.75733899,-119.6466953,8756,91,0,Fresno,California,956749.0,1.3,4.2
966,Frio,Texas,28.86751206,-99.10804207,336,0,0,Frio,Texas,18168.0,0.2,0.6
968,Fulton,Arkansas,36.38177105,-91.81729127,18,0,0,Fulton,Arkansas,12224.0,0.1,3.7
969,Fulton,Georgia,33.79216944,-84.46319413,11354,327,0,Fulton,Georgia,983903.0,7.0,7.9
970,Fulton,Illinois,40.47289135,-90.20862357,17,0,0,Fulton,Illinois,36323.0,0.3,2.3
971,Fulton,Indiana,41.0469907,-86.26252745,79,1,0,Fulton,Indiana,20527.0,0.3,4.7
972,Fulton,Kentucky,36.55238827,-89.20140068,29,1,0,Fulton,Kentucky,6422.0,0.5,4.6
973,Fulton,New York,43.11363907,-74.41798804,266,24,0,Fulton,New York,54606.0,0.6,3.2
974,Fulton,Ohio,41.60213491,-84.12571393,71,0,0,Fulton,Ohio,42485.0,0.1,2.9
975,Fulton,Pennsylvania,39.92913544,-78.11163677,19,1,0,Fulton,Pennsylvania,14694.0,0.2,4.0
977,Gadsden,Florida,30.57796289,-84.61915825,624,8,0,Gadsden,Florida,46424.0,0.5,1.6
978,Gage,Nebraska,40.26186809,-96.68946704,67,3,0,Gage,Nebraska,21818.0,0.0,5.3
979,Gaines,Texas,32.74055318,-102.6353295,45,0,0,Gaines,Texas,18916.0,0.0,1.5
982,Gallatin,Kentucky,38.75398691,-84.8558382,68,8,0,Gallatin,Kentucky,8567.0,0.1,2.5
983,Gallatin,Montana,45.54486106,-111.1692571,417,1,0,Gallatin,Montana,95323.0,0.6,6.8
984,Gallia,Ohio,38.82708533,-82.31647569,21,1,0,Gallia,Ohio,30565.0,0.1,3.0
985,Galveston,Texas,29.40167322,-94.90469073,6201,54,0,Galveston,Texas,308163.0,1.2,3.4
987,Garfield,Colorado,39.59921777,-107.902708,441,3,0,Garfield,Colorado,57076.0,4.4,6.7
990,Garfield,Oklahoma,36.3791334,-97.78265517,132,2,0,Garfield,Oklahoma,62192.0,0.2,2.8
992,Garland,Arkansas,34.57692074,-93.14921604,347,3,0,Garland,Arkansas,96954.0,0.5,4.9
993,Garrard,Kentucky,37.638866799999995,-84.53289319,40,0,0,Garrard,Kentucky,16976.0,0.4,5.4
994,Garrett,Maryland,39.52786077,-79.27355126,27,0,0,Garrett,Maryland,29813.0,0.5,5.9
995,Garvin,Oklahoma,34.70418038,-97.30811132,133,3,0,Garvin,Oklahoma,27455.0,0.2,3.1
996,Garza,Texas,33.17969345,-101.2984114,22,1,0,Garza,Texas,6410.0,0.0,0.6
997,Gasconade,Missouri,38.43947277,-91.50847147,17,0,0,Gasconade,Missouri,14948.0,0.4,4.6
998,Gaston,North Carolina,35.29373559,-81.17477045,1946,16,0,Gaston,North Carolina,209807.0,0.5,3.0
999,Gates,North Carolina,36.44667547,-76.69749701,30,2,0,Gates,North Carolina,11724.0,0.0,1.2
1000,Geary,Kansas,38.99871131,-96.7577178,86,1,0,Geary,Kansas,36787.0,0.2,3.1
1001,Geauga,Ohio,41.49952319,-81.17935342,436,43,0,Geauga,Ohio,93874.0,0.3,6.2
1002,Gem,Idaho,44.06482372,-116.398376,69,0,0,Gem,Idaho,16731.0,0.5,10.0
1003,Genesee,Michigan,43.02244215,-83.70589709,2931,291,0,Genesee,Michigan,415874.0,1.2,2.9
1004,Genesee,New York,43.0022601,-78.19135193,252,5,0,Genesee,New York,59458.0,0.4,2.9
1005,Geneva,Alabama,31.09389027,-85.83572839,106,0,0,Geneva,Alabama,26815.0,0.0,3.4
1006,Gentry,Missouri,40.21097916,-94.40944419,67,9,0,Gentry,Missouri,6785.0,0.5,4.9
1007,George,Mississippi,30.86259065,-88.64436789,131,3,0,George,Mississippi,23104.0,0.9,1.5
1008,Georgetown,South Carolina,33.43443342,-79.33202141,830,9,0,Georgetown,South Carolina,60572.0,0.6,4.2
1009,Gibson,Indiana,38.30393723,-87.58054938,133,2,0,Gibson,Indiana,33668.0,0.3,2.7
1010,Gibson,Tennessee,35.99438059,-88.93358327,217,1,0,Gibson,Tennessee,49572.0,0.1,2.4
1011,Gila,Arizona,33.80190085,-110.8132779,468,15,0,Gila,Arizona,53165.0,0.4,4.8
1012,Gilchrist,Florida,29.72856978,-82.79880657,156,0,0,Gilchrist,Florida,16992.0,0.6,3.5
1013,Giles,Tennessee,35.20222469,-87.03992678,131,1,0,Giles,Tennessee,28949.0,0.3,2.2
1014,Giles,Virginia,37.31234791,-80.70636931,18,0,0,Giles,Virginia,16907.0,0.1,4.9
1015,Gillespie,Texas,30.31824095,-98.94676915,65,0,0,Gillespie,Texas,25398.0,0.3,5.0
1017,Gilmer,Georgia,34.69316688,-84.45802506,262,2,0,Gilmer,Georgia,28673.0,0.2,4.4
1018,Gilmer,West Virginia,38.9251277,-80.85952723,13,0,0,Gilmer,West Virginia,8644.0,0.1,7.7
1020,Glacier,Montana,48.70513576,-112.9934235,28,0,0,Glacier,Montana,13672.0,0.3,10.1
1021,Glades,Florida,26.95635849,-81.18996211,209,1,0,Glades,Florida,13272.0,0.4,6.1
1022,Gladwin,Michigan,43.98901072,-84.38774817,28,1,0,Gladwin,Michigan,25501.0,0.5,3.3
1023,Glascock,Georgia,33.22879932,-82.61297636,15,0,0,Glascock,Georgia,3087.0,1.0,3.7
1025,Glenn,California,39.59875897,-122.3938452,183,0,0,Glenn,California,28029.0,0.3,5.5
1026,Gloucester,New Jersey,39.71581067,-75.13995546,2788,193,0,Gloucester,New Jersey,290298.0,1.9,2.9
1027,Gloucester,Virginia,37.40809042,-76.53524337,76,1,0,Gloucester,Virginia,37001.0,0.2,3.7
1028,Glynn,Georgia,31.23279254,-81.53811412,1622,10,0,Glynn,Georgia,81743.0,0.3,4.2
1029,Gogebic,Michigan,46.40862701,-89.69377193,16,1,0,Gogebic,Michigan,15824.0,0.7,2.5
1032,Goliad,Texas,28.65696592,-97.42760647,33,0,0,Goliad,Texas,7410.0,0.0,6.0
1033,Gonzales,Texas,29.45634206,-97.49424032,348,4,0,Gonzales,Texas,20172.0,1.6,3.9
1034,Goochland,Virginia,37.71714806,-77.90381514,131,6,0,Goochland,Virginia,21721.0,0.4,5.7
1035,Goodhue,Minnesota,44.40849741,-92.72341949999999,142,8,0,Goodhue,Minnesota,46377.0,1.0,5.1
1036,Gooding,Idaho,42.96927962,-114.81083059999999,87,1,0,Gooding,Idaho,15233.0,0.1,5.7
1037,Gordon,Georgia,34.50487351,-84.87296253,563,18,0,Gordon,Georgia,55889.0,0.5,2.7
1039,Gosper,Nebraska,40.51481965,-99.83020279,13,0,0,Gosper,Nebraska,1976.0,0.0,4.9
1041,Grady,Georgia,30.87454847,-84.23418364,257,4,0,Grady,Georgia,25243.0,0.1,2.5
1042,Grady,Oklahoma,35.0167709,-97.88339847,254,5,0,Grady,Oklahoma,53612.0,0.2,2.7
1043,Grafton,New Hampshire,43.93779815,-71.82057197,94,1,0,Grafton,New Hampshire,89341.0,1.5,4.9
1044,Graham,Arizona,32.93166885,-109.8882178,218,2,0,Graham,Arizona,37407.0,1.2,3.7
1047,Grainger,Tennessee,36.27469206,-83.51254721,59,0,0,Grainger,Tennessee,22736.0,0.3,3.5
1048,Grand,Colorado,40.10603347,-106.1178042,29,1,0,Grand,Colorado,14411.0,2.2,9.4
1049,Grand Forks,North Dakota,47.92093639,-97.45450447,461,4,0,Grand Forks,North Dakota,68979.0,1.0,4.1
1050,Grand Isle,Vermont,44.797582399999996,-73.29679772,13,0,0,Grand Isle,Vermont,6952.0,0.6,7.5
1051,Grand Traverse,Michigan,44.69565625,-85.55585247,99,5,0,Grand Traverse,Michigan,89907.0,0.7,4.1
1053,Grant,Arkansas,34.29017991,-92.42320562,62,0,0,Grant,Arkansas,18054.0,0.1,2.9
1054,Grant,Indiana,40.51587228,-85.65468702,334,26,0,Grant,Indiana,68896.0,0.4,6.1
1055,Grant,Kansas,37.56227336,-101.3079758,66,2,0,Grant,Kansas,7816.0,0.0,5.1
1056,Grant,Kentucky,38.64962758,-84.62415957,70,5,0,Grant,Kentucky,24670.0,0.2,2.4
1057,Grant,Louisiana,31.59882456,-92.56124347,136,2,0,Grant,Louisiana,22362.0,0.8,2.6
1058,Grant,Minnesota,45.93424769,-96.01139609,31,0,0,Grant,Minnesota,5961.0,0.6,6.1
1060,Grant,New Mexico,32.73911281,-108.3827845,41,0,0,Grant,New Mexico,29119.0,0.4,5.8
1064,Grant,South Dakota,45.1723937,-96.77002276,18,0,0,Grant,South Dakota,7227.0,0.0,6.0
1065,Grant,Washington,47.20753737,-119.4500749,866,8,0,Grant,Washington,92070.0,2.4,5.5
1066,Grant,West Virginia,39.10314817,-79.19440518,21,0,0,Grant,West Virginia,11815.0,0.3,3.8
1067,Grant,Wisconsin,42.8671731,-90.7063218,218,13,0,Grant,Wisconsin,51489.0,0.3,5.4
1068,Granville,North Carolina,36.30337451,-78.65184241,975,25,0,Granville,North Carolina,58109.0,0.0,4.0
1069,Gratiot,Michigan,43.29265605,-84.60505416,107,14,0,Gratiot,Michigan,41878.0,0.1,5.6
1070,Graves,Kentucky,36.72292505,-88.65143315,328,21,0,Graves,Kentucky,37502.0,0.4,4.9
1071,Gray,Kansas,37.73836671,-100.4369088,41,0,0,Gray,Kansas,6065.0,0.0,5.4
1072,Gray,Texas,35.40081878,-100.8129222,133,4,0,Gray,Texas,22983.0,0.0,0.7
1073,Grays Harbor,Washington,47.14003705,-123.7820567,52,0,0,Grays Harbor,Washington,71419.0,1.5,3.9
1074,Grayson,Kentucky,37.46231118,-86.34248968,150,11,0,Grayson,Kentucky,26001.0,0.1,3.2
1075,Grayson,Texas,33.62744998,-96.67753461,754,7,0,Grayson,Texas,122780.0,0.4,5.6
1076,Grayson,Virginia,36.65677234,-81.23215889,93,4,0,Grayson,Virginia,15573.0,1.1,1.9
1079,Green,Kentucky,37.26484328,-85.5540745,13,1,0,Green,Kentucky,11149.0,0.2,4.5
1080,Green,Wisconsin,42.6794956,-89.60243287,110,1,0,Green,Wisconsin,37044.0,0.0,5.7
1081,Green Lake,Wisconsin,43.80025981,-89.04679553,43,0,0,Green Lake,Wisconsin,18966.0,0.4,5.5
1082,Greenbrier,West Virginia,37.9463652,-80.45335881,71,3,0,Greenbrier,West Virginia,35666.0,0.4,3.1
1083,Greene,Alabama,32.85504247,-87.95684022,201,9,0,Greene,Alabama,8697.0,0.8,2.3
1084,Greene,Arkansas,36.11735460000001,-90.55832668,154,0,0,Greene,Arkansas,43382.0,0.1,2.4
1085,Greene,Georgia,33.5769205,-83.17139104,123,10,0,Greene,Georgia,16331.0,0.2,6.3
1086,Greene,Illinois,39.35907414,-90.388865,11,0,0,Greene,Illinois,13502.0,0.2,5.3
1087,Greene,Indiana,39.03630547,-86.96223202,200,32,0,Greene,Indiana,32815.0,0.3,1.3
1088,Greene,Iowa,42.03614551,-94.39658081,31,0,0,Greene,Iowa,9174.0,0.0,7.8
1089,Greene,Mississippi,31.21444233,-88.63922281,118,10,0,Greene,Mississippi,14129.0,0.0,3.3
1090,Greene,Missouri,37.2575872,-93.34230916,492,9,0,Greene,Missouri,283206.0,0.7,3.6
1091,Greene,New York,42.275797,-74.12384884,267,18,0,Greene,New York,48312.0,0.9,4.5
1092,Greene,North Carolina,35.48544173,-77.67578087,237,3,0,Greene,North Carolina,21328.0,0.4,1.5
1093,Greene,Ohio,39.69116283,-83.89032084,380,9,0,Greene,Ohio,164192.0,0.4,4.3
1094,Greene,Pennsylvania,39.85746531,-80.22357106,72,0,0,Greene,Pennsylvania,37938.0,0.1,2.1
1095,Greene,Tennessee,36.17470125,-82.84691273,163,2,0,Greene,Tennessee,68576.0,0.2,2.2
1096,Greene,Virginia,38.29545894,-78.46525378,87,2,0,Greene,Virginia,18938.0,0.5,2.9
1097,Greenlee,Arizona,33.21498827,-109.2405279,33,1,0,Greenlee,Arizona,9023.0,0.0,3.0
1098,Greensville,Virginia,36.67878901,-77.56351439,382,9,0,Greensville,Virginia,11760.0,1.2,1.4
1099,Greenup,Kentucky,38.54332505,-82.9215658,45,0,0,Greenup,Kentucky,36477.0,0.4,1.6
1100,Greenville,South Carolina,34.89502264,-82.37295012,7464,106,0,Greenville,South Carolina,474903.0,0.4,4.1
1101,Greenwood,Kansas,37.8774388,-96.23250453,11,0,0,Greenwood,Kansas,6393.0,0.3,4.7
1102,Greenwood,South Carolina,34.15272415,-82.12715789,845,7,0,Greenwood,South Carolina,69771.0,0.4,2.9
1103,Greer,Oklahoma,34.93535801,-99.56056120000001,69,7,0,Greer,Oklahoma,6117.0,0.0,4.8
1104,Gregg,Texas,32.47940482,-94.81591935,837,15,0,Gregg,Texas,123178.0,0.4,2.1
1106,Grenada,Mississippi,33.77036166,-89.80245083,634,12,0,Grenada,Mississippi,21591.0,1.5,0.8
1108,Grimes,Texas,30.54579585,-95.98902499,658,2,0,Grimes,Texas,26961.0,0.0,2.9
1109,Grundy,Illinois,41.28569601,-88.41905692,196,5,0,Grundy,Illinois,50277.0,0.8,3.2
1110,Grundy,Iowa,42.40183723,-92.78829551,48,0,0,Grundy,Iowa,12407.0,0.1,5.5
1111,Grundy,Missouri,40.11406587,-93.56509276,22,1,0,Grundy,Missouri,10256.0,0.7,3.5
1112,Grundy,Tennessee,35.38433717,-85.72142731,67,2,0,Grundy,Tennessee,13524.0,0.0,5.6
1113,Guadalupe,New Mexico,34.86319296,-104.790669,20,0,0,Guadalupe,New Mexico,4526.0,0.0,2.6
1114,Guadalupe,Texas,29.58165339,-97.94786822,1044,3,0,Guadalupe,Texas,143460.0,0.2,3.7
1115,Guernsey,Ohio,40.05026529,-81.49248905,83,4,0,Guernsey,Ohio,39626.0,0.4,3.4
1116,Guilford,North Carolina,36.07959451,-79.78824948,3760,128,0,Guilford,North Carolina,506763.0,1.3,5.0
1117,Gulf,Florida,29.93543004,-85.24270990000002,101,0,0,Gulf,Florida,15785.0,0.0,4.2
1118,Gunnison,Colorado,38.66611652,-107.0320729,193,6,0,Gunnison,Colorado,15651.0,2.1,4.7
1119,Guthrie,Iowa,41.68378965,-94.50111014,82,4,0,Guthrie,Iowa,10740.0,0.1,6.5
1120,Gwinnett,Georgia,33.96044201,-84.02137802,11882,187,0,Gwinnett,Georgia,859234.0,1.1,5.4
1122,Habersham,Georgia,34.63331566,-83.53094677,785,41,0,Habersham,Georgia,43527.0,0.5,3.0
1123,Hale,Alabama,32.76039258,-87.63284988,367,23,0,Hale,Alabama,15256.0,0.0,1.2
1124,Hale,Texas,34.07044901,-101.82681140000001,776,11,0,Hale,Texas,35504.0,0.4,3.6
1125,Halifax,North Carolina,36.25669272,-77.6556109,430,4,0,Halifax,North Carolina,53407.0,0.1,1.7
1126,Halifax,Virginia,36.76654925,-78.93512622,89,1,0,Halifax,Virginia,35506.0,0.4,2.9
1127,Hall,Georgia,34.32207823,-83.81896936,3928,65,0,Hall,Georgia,187916.0,0.3,3.9
1128,Hall,Nebraska,40.87257079,-98.50218293,1627,47,0,Hall,Nebraska,60792.0,1.1,2.7
1130,Hamblen,Tennessee,36.21990035,-83.26586179,514,4,0,Hamblen,Tennessee,62999.0,0.3,2.0
1131,Hamilton,Florida,30.49673973,-82.94998918,439,2,0,Hamilton,Florida,14395.0,0.0,3.7
1133,Hamilton,Indiana,40.07306535,-86.05244729,1779,101,0,Hamilton,Indiana,296635.0,0.2,6.2
1134,Hamilton,Iowa,42.38382428,-93.70197703,207,1,0,Hamilton,Iowa,15297.0,0.0,3.3
1135,Hamilton,Kansas,37.99978709,-101.7921066,33,0,0,Hamilton,Kansas,2586.0,0.0,8.3
1136,Hamilton,Nebraska,40.87349452,-98.02099117,73,12,0,Hamilton,Nebraska,9100.0,0.0,6.5
1138,Hamilton,Ohio,39.19673558,-84.54502924,7179,208,0,Hamilton,Ohio,804194.0,3.7,4.1
1139,Hamilton,Tennessee,35.17670231,-85.16652245,3648,38,0,Hamilton,Tennessee,348121.0,1.0,4.2
1140,Hamilton,Texas,31.70470573,-98.11083887,34,1,0,Hamilton,Texas,8266.0,0.0,3.6
1141,Hamlin,South Dakota,44.67385954,-97.18829593,13,0,0,Hamlin,South Dakota,5982.0,0.0,8.5
1142,Hampden,Massachusetts,42.13440424,-72.63235561,7039,679,0,Hampden,Massachusetts,468041.0,2.2,3.4
1143,Hampshire,Massachusetts,42.33997957,-72.65898478,1012,117,0,Hampshire,Massachusetts,160759.0,3.4,7.8
1144,Hampshire,West Virginia,39.32103553,-78.60826476,44,1,0,Hampshire,West Virginia,23542.0,0.4,1.6
1145,Hampton,South Carolina,32.77419582,-81.13845571,120,3,0,Hampton,South Carolina,20473.0,1.8,1.3
1147,Hancock,Georgia,33.2721566,-82.99766919,236,33,0,Hancock,Georgia,8881.0,0.8,2.0
1148,Hancock,Illinois,40.40423981,-91.16313899,21,1,0,Hancock,Illinois,18738.0,0.2,7.5
1149,Hancock,Indiana,39.82304555,-85.77566351,472,36,0,Hancock,Indiana,71328.0,0.1,4.8
1150,Hancock,Iowa,43.08178477,-93.73454884,63,1,0,Hancock,Iowa,11092.0,0.5,6.8
1151,Hancock,Kentucky,37.83766422,-86.78280584,32,0,0,Hancock,Kentucky,8669.0,0.1,2.1
1152,Hancock,Maine,44.59816444,-68.38401854,18,1,0,Hancock,Maine,54658.0,0.8,7.9
1153,Hancock,Mississippi,30.41830223,-89.48851033,158,13,0,Hancock,Mississippi,45627.0,0.2,2.5
1154,Hancock,Ohio,41.00250487,-83.66838948,92,1,0,Hancock,Ohio,75428.0,0.3,3.5
1155,Hancock,Tennessee,36.52692871,-83.22375847,12,0,0,Hancock,Tennessee,6642.0,2.2,4.2
1156,Hancock,West Virginia,40.51943859,-80.57461608,46,0,0,Hancock,West Virginia,30201.0,1.4,1.8
1158,Hanover,Virginia,37.7583355,-77.49464673,486,31,0,Hanover,Virginia,101340.0,0.4,6.2
1159,Hansford,Texas,36.27743284,-101.3545796,38,2,0,Hansford,Texas,5559.0,0.0,2.1
1160,Hanson,South Dakota,43.6746384,-97.78715148,14,0,0,Hanson,South Dakota,3386.0,0.1,7.9
1161,Haralson,Georgia,33.79602175,-85.21005667,114,5,0,Haralson,Georgia,28565.0,0.1,2.5
1162,Hardee,Florida,27.49293939,-81.80956574,613,4,0,Hardee,Florida,27468.0,2.5,2.6
1163,Hardeman,Tennessee,35.20772017,-88.99161161,456,4,0,Hardeman,Tennessee,26253.0,0.1,5.3
1166,Hardin,Iowa,42.38353877,-93.23654611,92,0,0,Hardin,Iowa,17393.0,0.2,4.4
1167,Hardin,Kentucky,37.6976111,-85.96319251,286,6,0,Hardin,Kentucky,107529.0,0.5,3.2
1168,Hardin,Ohio,40.66015414,-83.65929931,125,12,0,Hardin,Ohio,31736.0,0.3,4.7
1169,Hardin,Tennessee,35.19732531,-88.18593755,142,7,0,Hardin,Tennessee,25900.0,0.2,4.8
1170,Hardin,Texas,30.33364686,-94.38931817,404,5,0,Hardin,Texas,55375.0,0.1,1.9
1172,Hardy,West Virginia,39.00683177,-78.85855301,47,0,0,Hardy,West Virginia,13936.0,0.4,2.3
1173,Harford,Maryland,39.55010644,-76.30775940000002,1311,66,0,Harford,Maryland,248966.0,1.7,3.9
1174,Harlan,Kentucky,36.85699301,-83.21899516,45,2,0,Harlan,Kentucky,28400.0,0.8,1.4
1177,Harnett,North Carolina,35.36731853,-78.87243571,804,32,0,Harnett,North Carolina,124320.0,0.1,3.0
1181,Harris,Georgia,32.73709786,-84.90538572,465,13,0,Harris,Georgia,32776.0,0.2,2.8
1182,Harris,Texas,29.86,-95.39,49027,473,0,Harris,Texas,4356362.0,2.9,3.3
1183,Harrison,Indiana,38.19467379,-86.10948271,220,22,0,Harrison,Indiana,39230.0,0.3,3.9
1184,Harrison,Iowa,41.68330137,-95.81558439,63,0,0,Harrison,Iowa,14467.0,0.2,4.7
1185,Harrison,Kentucky,38.44188174,-84.32869741,82,0,0,Harrison,Kentucky,18648.0,0.1,2.4
1186,Harrison,Mississippi,30.51359752,-89.12467576,1231,16,0,Harrison,Mississippi,196268.0,1.0,2.1
1187,Harrison,Missouri,40.35570088,-93.99222144,31,0,0,Harrison,Missouri,8722.0,0.1,4.2
1188,Harrison,Ohio,40.29380509,-81.09068544,13,1,0,Harrison,Ohio,15633.0,0.1,2.7
1189,Harrison,Texas,32.54935988,-94.36934071,451,31,0,Harrison,Texas,66417.0,0.1,3.3
1190,Harrison,West Virginia,39.2853852,-80.37919577,126,1,0,Harrison,West Virginia,68998.0,0.6,2.4
1192,Hart,Georgia,34.34626973,-82.96567682,121,0,0,Hart,Georgia,25498.0,0.0,5.1
1193,Hart,Kentucky,37.29943898,-85.88461055,50,0,0,Hart,Kentucky,18441.0,0.3,4.8
1194,Hartford,Connecticut,41.80283011,-72.73103891,11950,1394,0,Hartford,Connecticut,896943.0,3.6,3.6
1195,Hartley,Texas,35.84008013,-102.6029022,59,2,0,Hartley,Texas,6121.0,0.0,5.4
1196,Harvey,Kansas,38.04293782,-97.42747573,91,1,0,Harvey,Kansas,34835.0,0.2,4.0
1197,Haskell,Kansas,37.562039399999996,-100.8710738,33,0,0,Haskell,Kansas,4130.0,0.0,7.0
1198,Haskell,Oklahoma,35.22257600000001,-95.11513306,17,0,0,Haskell,Oklahoma,12850.0,0.0,4.8
1200,Hawkins,Tennessee,36.44355426,-82.94885298,100,2,0,Hawkins,Tennessee,56595.0,0.5,2.2
1202,Hays,Texas,30.05669873,-98.02944344,3643,11,0,Hays,Texas,177562.0,1.0,6.0
1203,Haywood,North Carolina,35.55269063,-82.98196486,138,0,0,Haywood,North Carolina,59170.0,0.4,3.8
1204,Haywood,Tennessee,35.58332824,-89.28536625,150,3,0,Haywood,Tennessee,18248.0,0.0,2.4
1205,Heard,Georgia,33.29686567,-85.12886832,85,3,0,Heard,Georgia,11617.0,0.0,0.5
1206,Hemphill,Texas,35.83764858,-100.2703577,22,0,0,Hemphill,Texas,4115.0,0.0,3.8
1207,Hempstead,Arkansas,33.73325583,-93.66935133,96,1,0,Hempstead,Arkansas,22336.0,0.5,3.6
1209,Henderson,Kentucky,37.79344553,-87.57392021,214,3,0,Henderson,Kentucky,46396.0,0.5,2.5
1210,Henderson,North Carolina,35.33788927,-82.4766782,973,51,0,Henderson,North Carolina,109719.0,0.2,5.3
1211,Henderson,Tennessee,35.65581134,-88.38600175,90,0,0,Henderson,Tennessee,28013.0,0.2,3.0
1212,Henderson,Texas,32.21128872,-95.85846587,319,5,0,Henderson,Texas,79016.0,0.1,3.8
1213,Hendricks,Indiana,39.76719009,-86.51037283,1482,100,0,Hendricks,Indiana,153435.0,0.1,3.6
1214,Hendry,Florida,26.55386945,-81.16469006,1267,30,0,Hendry,Florida,38363.0,7.9,2.9
1215,Hennepin,Minnesota,45.00761521,-93.47694895,13790,791,0,Hennepin,Minnesota,1197776.0,7.3,5.2
1216,Henrico,Virginia,37.53460572,-77.39326555,2925,173,0,Henrico,Virginia,318864.0,1.1,4.5
1217,Henry,Alabama,31.51148016,-85.24267944,161,3,0,Henry,Alabama,17252.0,0.1,2.2
1218,Henry,Georgia,33.4533428,-84.14814659999998,1851,34,0,Henry,Georgia,211512.0,1.1,5.1
1219,Henry,Illinois,41.3533994,-90.13296166,122,1,0,Henry,Illinois,49883.0,0.1,3.4
1220,Henry,Indiana,39.93029017,-85.39625719,306,18,0,Henry,Indiana,49146.0,0.3,3.0
1221,Henry,Iowa,40.98767962,-91.54436349,93,3,0,Henry,Iowa,20080.0,0.2,4.2
1222,Henry,Kentucky,38.44942688,-85.11587507,45,2,0,Henry,Kentucky,15455.0,0.3,3.0
1223,Henry,Missouri,38.38482826,-93.79293734,27,3,0,Henry,Missouri,22034.0,0.0,4.0
1224,Henry,Ohio,41.3339642,-84.06830637,38,0,0,Henry,Ohio,28015.0,0.3,2.3
1225,Henry,Tennessee,36.33160906,-88.30121797,56,0,0,Henry,Tennessee,32269.0,0.1,3.9
1226,Henry,Virginia,36.68542395,-79.87634026,363,5,0,Henry,Virginia,52580.0,0.3,2.2
1227,Herkimer,New York,43.42034246,-74.96145307,195,4,0,Herkimer,New York,64034.0,0.8,4.6
1228,Hernando,Florida,28.55364461,-82.42700204,946,10,0,Hernando,Florida,174809.0,0.1,5.0
1229,Hertford,North Carolina,36.3607755,-76.98104134,181,11,0,Hertford,North Carolina,24368.0,0.6,1.4
1232,Hickman,Tennessee,35.80609681,-87.47643507,114,0,0,Hickman,Tennessee,24283.0,0.4,3.5
1234,Hidalgo,New Mexico,31.91383467,-108.7151824,75,0,0,Hidalgo,New Mexico,4643.0,0.1,5.9
1235,Hidalgo,Texas,26.39418217,-98.18299696,8040,150,0,Hidalgo,Texas,819217.0,0.3,4.6
1236,Highland,Ohio,39.1839264,-83.60331456,58,1,0,Highland,Ohio,43170.0,0.8,4.0
1238,Highlands,Florida,27.34254618,-81.34071957,590,13,0,Highlands,Florida,98328.0,2.3,3.8
1239,Hill,Montana,48.62879827,-110.1129252,14,0,0,Hill,Montana,16523.0,0.2,4.1
1240,Hill,Texas,31.99045053,-97.13423143,154,2,0,Hill,Texas,34923.0,0.1,4.4
1241,Hillsborough,Florida,27.9276559,-82.32013172,20508,189,0,Hillsborough,Florida,1302884.0,1.4,5.5
1242,Hillsborough,New Hampshire,42.91537785,-71.7200253,3443,261,0,Hillsborough,New Hampshire,403972.0,0.9,6.2
1243,Hillsdale,Michigan,41.88753639,-84.59312019,211,25,0,Hillsdale,Michigan,46178.0,0.2,4.4
1244,Hinds,Mississippi,32.2656285,-90.44435448,3102,58,0,Hinds,Mississippi,245874.0,0.6,2.6
1247,Hocking,Ohio,39.49537927,-82.47991446,84,8,0,Hocking,Ohio,28914.0,0.3,3.1
1248,Hockley,Texas,33.60771256,-102.3431676,109,1,0,Hockley,Texas,23322.0,0.1,2.4
1250,Hoke,North Carolina,35.01888303,-79.23651674,480,5,0,Hoke,North Carolina,51075.0,0.8,2.6
1251,Holmes,Florida,30.86747479,-85.81319222,234,1,0,Holmes,Florida,19635.0,0.3,2.7
1252,Holmes,Mississippi,33.12345854,-90.08923538,608,42,0,Holmes,Mississippi,18772.0,1.2,1.1
1253,Holmes,Ohio,40.56163713,-81.92635677,264,5,0,Holmes,Ohio,43436.0,0.3,8.9
1256,Hood,Texas,32.42990927,-97.83242024,216,5,0,Hood,Texas,53171.0,0.1,5.8
1257,Hood River,Oregon,45.51872811,-121.65520359999998,109,0,0,Hood River,Oregon,22749.0,0.1,9.3
1260,Hopkins,Kentucky,37.30939025,-87.54670406,317,33,0,Hopkins,Kentucky,46518.0,0.1,1.6
1261,Hopkins,Texas,33.14875072,-95.56351139,88,1,0,Hopkins,Texas,35645.0,0.1,4.5
1262,Horry,South Carolina,33.9212828,-78.99555293,6055,75,0,Horry,South Carolina,290730.0,0.2,3.4
1263,Hot Spring,Arkansas,34.31709259,-92.95396325,1294,1,0,Hot Spring,Arkansas,33316.0,0.6,1.7
1264,Hot Springs,Wyoming,43.71930657,-108.44231740000001,12,0,0,Hot Springs,Wyoming,4809.0,0.6,5.2
1265,Houghton,Michigan,46.89988536,-88.68495385,30,0,0,Houghton,Michigan,36660.0,0.9,3.9
1266,Houston,Alabama,31.15197924,-85.29939599,658,7,0,Houston,Alabama,103534.0,0.3,2.1
1267,Houston,Georgia,32.45802497,-83.66879087,1017,31,0,Houston,Georgia,147570.0,0.1,1.9
1268,Houston,Minnesota,43.67129565,-91.49143057,32,0,0,Houston,Minnesota,18812.0,0.5,6.2
1269,Houston,Tennessee,36.28872054,-87.71878828,24,0,0,Houston,Tennessee,8290.0,0.3,1.3
1270,Houston,Texas,31.31925973,-95.42226208,188,0,0,Houston,Texas,22949.0,0.0,5.0
1271,Howard,Arkansas,34.09007427,-93.9934871,154,1,0,Howard,Arkansas,13555.0,1.9,4.4
1272,Howard,Indiana,40.48527731,-86.11351892,617,58,0,Howard,Indiana,82765.0,0.6,2.7
1273,Howard,Iowa,43.35671042,-92.31702714,37,0,0,Howard,Iowa,9494.0,0.2,8.3
1274,Howard,Maryland,39.25305293,-76.93126208,2891,96,0,Howard,Maryland,304115.0,3.8,5.5
1276,Howard,Nebraska,41.2200529,-98.5166499,48,4,0,Howard,Nebraska,6347.0,0.0,11.4
1277,Howard,Texas,32.30621324,-101.4356444,71,1,0,Howard,Texas,36105.0,0.2,1.7
1278,Howell,Missouri,36.77383887,-91.88683935,52,0,0,Howell,Missouri,40326.0,0.1,3.7
1279,Hubbard,Minnesota,47.10778564,-94.91693868,11,0,0,Hubbard,Minnesota,20574.0,0.4,6.1
1280,Hudson,New Jersey,40.73766234,-74.07515667,19193,1487,0,Hudson,New Jersey,662619.0,41.0,3.0
1281,Hudspeth,Texas,31.45628381,-105.388178,18,0,0,Hudspeth,Texas,3330.0,0.0,10.6
1283,Hughes,Oklahoma,35.04912569,-96.24921145,15,0,0,Hughes,Oklahoma,13785.0,0.7,9.4
1284,Hughes,South Dakota,44.39091534,-99.99661148,72,2,0,Hughes,South Dakota,17466.0,0.4,1.9
1285,Humboldt,California,40.69923009,-123.876044,167,4,0,Humboldt,California,135034.0,1.7,7.2
1286,Humboldt,Iowa,42.7764426,-94.20722537,61,1,0,Humboldt,Iowa,9674.0,0.1,4.0
1287,Humboldt,Nevada,41.40692186,-118.11094270000001,91,4,0,Humboldt,Nevada,17067.0,13.9,3.8
1288,Humphreys,Mississippi,33.12825718,-90.52252707,178,10,0,Humphreys,Mississippi,8984.0,0.0,1.5
1289,Humphreys,Tennessee,36.03958805,-87.77992872,52,2,0,Humphreys,Tennessee,18240.0,0.0,3.8
1290,Hunt,Texas,33.12351514,-96.08551032,720,8,0,Hunt,Texas,88052.0,0.0,3.2
1291,Hunterdon,New Jersey,40.56335249,-74.91284156,1095,126,0,Hunterdon,New Jersey,126250.0,2.1,7.6
1292,Huntingdon,Pennsylvania,40.42162652,-77.97673273,260,4,0,Huntingdon,Pennsylvania,45906.0,0.3,3.4
1293,Huntington,Indiana,40.82907273,-85.48822092,93,2,0,Huntington,Indiana,36863.0,0.2,3.7
1294,Huron,Michigan,43.83353985,-83.04078453,80,3,0,Huron,Michigan,32290.0,0.5,4.3
1295,Huron,Ohio,41.14651175,-82.59867951,264,3,0,Huron,Ohio,58937.0,0.8,2.3
1296,Hutchinson,South Dakota,43.33449012,-97.75536441,18,0,0,Hutchinson,South Dakota,7226.0,0.0,10.2
1297,Hutchinson,Texas,35.84006574,-101.3546643,81,0,0,Hutchinson,Texas,21858.0,0.2,2.8
1298,Hyde,North Carolina,35.42017674,-76.15180542,31,0,0,Hyde,North Carolina,5693.0,0.0,5.6
1300,Iberia,Louisiana,29.86803617,-91.75871777,1408,52,0,Iberia,Louisiana,73938.0,0.6,1.6
1301,Iberville,Louisiana,30.25734305,-91.3499598,857,43,0,Iberville,Louisiana,33229.0,0.5,1.5
1302,Ida,Iowa,42.38696136,-95.51355387,24,0,0,Ida,Iowa,7071.0,0.3,7.2
1303,Idaho,Idaho,45.84721541,-115.4634436,13,0,0,Idaho,Idaho,16312.0,0.1,9.3
1304,Imperial,California,33.0393082,-115.36690420000001,8119,141,0,Imperial,California,178206.0,1.1,4.0
1305,Independence,Arkansas,35.74242707,-91.57001641,79,0,0,Independence,Arkansas,36952.0,0.1,1.7
1306,Indian River,Florida,27.69308961,-80.60556721,1337,22,0,Indian River,Florida,142866.0,0.3,5.7
1307,Indiana,Pennsylvania,40.65241041,-79.08963285,169,6,0,Indiana,Pennsylvania,87895.0,0.6,3.2
1308,Ingham,Michigan,42.59716886,-84.37472069,1207,29,0,Ingham,Michigan,283491.0,3.2,3.9
1309,Inyo,California,36.51112084,-117.41119779999998,37,1,0,Inyo,California,18373.0,0.8,5.4
1310,Ionia,Michigan,42.94502238,-85.07413319,218,5,0,Ionia,Michigan,64064.0,0.5,3.7
1311,Iosco,Michigan,44.35486835,-83.63484895,122,11,0,Iosco,Michigan,25401.0,0.0,3.7
1312,Iowa,Iowa,41.68630265,-92.0643373,63,1,0,Iowa,Iowa,16344.0,0.2,6.1
1313,Iowa,Wisconsin,43.00050278,-90.13469017,47,0,0,Iowa,Wisconsin,23769.0,0.4,6.4
1314,Iredell,North Carolina,35.80950511,-80.8743128,1179,10,0,Iredell,North Carolina,165066.0,0.4,4.3
1318,Iron,Wisconsin,46.26302338,-90.24295041,17,1,0,Iron,Wisconsin,5907.0,0.2,4.7
1319,Iroquois,Illinois,40.74717633,-87.82466784,176,5,0,Iroquois,Illinois,29053.0,0.2,5.8
1320,Irwin,Georgia,31.60213036,-83.27501387,107,1,0,Irwin,Georgia,9408.0,0.0,4.2
1321,Isabella,Michigan,43.64060976,-84.84664923,163,8,0,Isabella,Michigan,70669.0,1.3,4.0
1322,Isanti,Minnesota,45.56181234,-93.29487636,84,0,0,Isanti,Minnesota,38296.0,1.3,5.1
1323,Island,Washington,48.14713305,-122.5216407,206,11,0,Island,Washington,79329.0,2.8,7.2
1324,Isle of Wight,Virginia,36.90579348,-76.70842863,237,9,0,Isle of Wight,Virginia,35740.0,0.2,2.8
1325,Issaquena,Mississippi,32.72531359,-90.97392828,11,1,0,Issaquena,Mississippi,1291.0,0.3,2.3
1326,Itasca,Minnesota,47.51009045,-93.63092229,76,12,0,Itasca,Minnesota,45354.0,1.0,4.3
1327,Itawamba,Mississippi,34.27993475,-88.3606733,152,8,0,Itawamba,Mississippi,23451.0,0.4,2.2
1328,Izard,Arkansas,36.09604046,-91.90847954,26,1,0,Izard,Arkansas,13480.0,0.0,3.8
